Feature_ID,Name,Description,Diameter,Center_Lon,Center_Lat,Type,USGS,Wikipedia
4987,Reiner Gamma,,73.44,-58.96,7.39,Albedo Feature,http://planetarynames.wr.usgs.gov/Feature/4987,https://en.wikipedia.org/wiki/Reiner_Gamma
1055,Catena Abulfeda,,209.97,16.7,-16.59,"Catena, catenae",http://planetarynames.wr.usgs.gov/Feature/1055,https://www.wikipedia.org/wiki/Catena_Abulfeda
1056,Catena Artamonov,,131.21,105.77,26.09,"Catena, catenae",http://planetarynames.wr.usgs.gov/Feature/1056,https://www.wikipedia.org/wiki/Catena_Artamonov
1057,Catena Brigitte,,7.65,27.49,18.5,"Catena, catenae",http://planetarynames.wr.usgs.gov/Feature/1057,NO
1058,Catena Davy,,52.34,-6.27,-10.98,"Catena, catenae",http://planetarynames.wr.usgs.gov/Feature/1058,https://www.wikipedia.org/wiki/Catena_Davy
1059,Catena Dziewulski,,80.66,100.27,18.78,"Catena, catenae",http://planetarynames.wr.usgs.gov/Feature/1059,NO
1060,Catena Gregory,,148.16,129.8,-0.59,"Catena, catenae",http://planetarynames.wr.usgs.gov/Feature/1060,NO
1061,Catena Humboldt,,162.29,84.7,-21.98,"Catena, catenae",http://planetarynames.wr.usgs.gov/Feature/1061,NO
1062,Catena Krafft,,55.11,-72.25,14.91,"Catena, catenae",http://planetarynames.wr.usgs.gov/Feature/1062,NO
1063,Catena Kurchatov,,234.91,136.6,37.25,"Catena, catenae",http://planetarynames.wr.usgs.gov/Feature/1063,NO
1064,Catena Leuschner (GDL),,200.06,-111.3,5.07,"Catena, catenae",http://planetarynames.wr.usgs.gov/Feature/1064,NO
1065,Catena Littrow,,10.3,29.61,22.23,"Catena, catenae",http://planetarynames.wr.usgs.gov/Feature/1065,NO
1066,Catena Lucretius (RNII),,232.07,-126.45,-4.03,"Catena, catenae",http://planetarynames.wr.usgs.gov/Feature/1066,NO
1067,Catena Mendeleev,,125.22,139.22,6.63,"Catena, catenae",http://planetarynames.wr.usgs.gov/Feature/1067,NO
1068,Catena Michelson (GIRD),,450.6,-113.58,-0.44,"Catena, catenae",http://planetarynames.wr.usgs.gov/Feature/1068,NO
1069,Catena Pierre,,9.44,-31.86,19.76,"Catena, catenae",http://planetarynames.wr.usgs.gov/Feature/1069,NO
1070,Catena Sumner,,220.52,111.91,37.89,"Catena, catenae",http://planetarynames.wr.usgs.gov/Feature/1070,NO
1071,Catena Sylvester,,139,-83.12,79.99,"Catena, catenae",http://planetarynames.wr.usgs.gov/Feature/1071,NO
1072,Catena Taruntius,,69.24,48.71,3.04,"Catena, catenae",http://planetarynames.wr.usgs.gov/Feature/1072,NO
1073,Catena Timocharis,,48.37,-13.21,29.09,"Catena, catenae",http://planetarynames.wr.usgs.gov/Feature/1073,NO
1074,Catena Yuri,,4.52,-30.38,24.41,"Catena, catenae",http://planetarynames.wr.usgs.gov/Feature/1074,https://www.wikipedia.org/wiki/Catena_Yuri
9340,8 Homeward,,12.52,97.09,-12.02,"Crater, craters",http://planetarynames.wr.usgs.gov/Feature/9340,NO
9,Abbe,,63.98,174.77,-57.58,"Crater, craters",http://planetarynames.wr.usgs.gov/Feature/9,https://en.wikipedia.org/wiki/Abbe_(crater)
10,Abbot,,10.4,54.74,5.56,"Crater, craters",http://planetarynames.wr.usgs.gov/Feature/10,https://en.wikipedia.org/wiki/Abbot_(crater)
6774,[Abduh],,0,39,14.7,"Crater, craters",http://planetarynames.wr.usgs.gov/Feature/6774,
12,Abel,,137.35,85.78,-34.63,"Crater, craters",http://planetarynames.wr.usgs.gov/Feature/12,https://en.wikipedia.org/wiki/Abel_(crater)
14,Abenezra,,43.19,11.89,-20.99,"Crater, craters",http://planetarynames.wr.usgs.gov/Feature/14,https://en.wikipedia.org/wiki/Abenezra_(crater)
16,Abetti,,1.6,27.82,20.11,"Crater, craters",http://planetarynames.wr.usgs.gov/Feature/16,https://en.wikipedia.org/wiki/Abetti_(crater)
23,Abulfeda,,62.23,13.91,-13.87,"Crater, craters",http://planetarynames.wr.usgs.gov/Feature/23,https://en.wikipedia.org/wiki/Abulfeda_(crater)
22,Abul Wáfa,,54.18,116.63,0.96,"Crater, craters",http://planetarynames.wr.usgs.gov/Feature/22,https://en.wikipedia.org/wiki/Abul_Wafa_(crater)
40,Acosta,,13.06,60.14,-5.65,"Crater, craters",http://planetarynames.wr.usgs.gov/Feature/40,https://en.wikipedia.org/wiki/Acosta_(crater)
47,Adams,,63.27,68.39,-31.89,"Crater, craters",http://planetarynames.wr.usgs.gov/Feature/47,https://en.wikipedia.org/wiki/Adams_(lunar_crater)
14523,Aepinus,,16.74,-109.69,87.96,"Crater, craters",http://planetarynames.wr.usgs.gov/Feature/14523,https://en.wikipedia.org/wiki/Aepinus_(crater)
82,Agatharchides,,51.98,-31.11,-19.85,"Crater, craters",http://planetarynames.wr.usgs.gov/Feature/82,https://en.wikipedia.org/wiki/Agatharchides_(crater)
92,Agrippa,,43.75,10.47,4.1,"Crater, craters",http://planetarynames.wr.usgs.gov/Feature/92,https://en.wikipedia.org/wiki/Agrippa_(crater)
113,Airy,,38.9,5.61,-18.14,"Crater, craters",http://planetarynames.wr.usgs.gov/Feature/113,https://en.wikipedia.org/wiki/Airy_(lunar_crater)
119,Aitken,,129.69,172.96,-16.44,"Crater, craters",http://planetarynames.wr.usgs.gov/Feature/119,https://en.wikipedia.org/wiki/Aitken_(crater)
133,Akis,,2.28,-31.76,20.01,"Crater, craters",http://planetarynames.wr.usgs.gov/Feature/133,https://en.wikipedia.org/wiki/Mons_Vinogradov
156,Alan,,1.44,-6.17,-10.93,"Crater, craters",http://planetarynames.wr.usgs.gov/Feature/156,
145,Al-Bakri,,12.21,20.25,14.34,"Crater, craters",http://planetarynames.wr.usgs.gov/Feature/145,https://en.wikipedia.org/wiki/Al-Bakri_(crater)
162,Albategnius,,130.84,4.01,-11.24,"Crater, craters",http://planetarynames.wr.usgs.gov/Feature/162,https://en.wikipedia.org/wiki/Albategnius_(crater)
15003,Albert,,0.1,-35.01,38.32,"Crater, craters",http://planetarynames.wr.usgs.gov/Feature/15003,https://en.wikipedia.org/wiki/Albert_(crater)
146,Al-Biruni,,80.41,92.62,18.07,"Crater, craters",http://planetarynames.wr.usgs.gov/Feature/146,https://en.wikipedia.org/wiki/Al-Biruni_(crater)
170,Alden,,111.44,111.11,-23.51,"Crater, craters",http://planetarynames.wr.usgs.gov/Feature/170,https://en.wikipedia.org/wiki/Alden_(crater)
171,Alder,,82.12,-177.88,-48.63,"Crater, craters",http://planetarynames.wr.usgs.gov/Feature/171,https://en.wikipedia.org/wiki/Alder_(crater)
172,Aldrin,,2.8,22.09,1.41,"Crater, craters",http://planetarynames.wr.usgs.gov/Feature/172,https://en.wikipedia.org/wiki/Aldrin_(crater)
174,Alekhin,,74.82,-131.85,-67.94,"Crater, craters",http://planetarynames.wr.usgs.gov/Feature/174,https://en.wikipedia.org/wiki/Alekhin_(crater)
177,Alexander,,94.8,13.69,40.25,"Crater, craters",http://planetarynames.wr.usgs.gov/Feature/177,https://en.wikipedia.org/wiki/Alexander_(crater)
181,Alfraganus,,20.52,18.97,-5.42,"Crater, craters",http://planetarynames.wr.usgs.gov/Feature/181,https://en.wikipedia.org/wiki/Alfraganus_(crater)
183,Alhazen,,34.65,71.83,15.91,"Crater, craters",http://planetarynames.wr.usgs.gov/Feature/183,https://en.wikipedia.org/wiki/Alhazen_(crater)
185,Aliacensis,,79.65,5.13,-30.6,"Crater, craters",http://planetarynames.wr.usgs.gov/Feature/185,https://en.wikipedia.org/wiki/Aliacensis_(crater)
149,Al-Khwarizmi,,56.25,107.01,7.02,"Crater, craters",http://planetarynames.wr.usgs.gov/Feature/149,https://en.wikipedia.org/wiki/Al-Khwarizmi_(crater)
196,Almanon,,47.76,15.14,-16.85,"Crater, craters",http://planetarynames.wr.usgs.gov/Feature/196,https://en.wikipedia.org/wiki/Almanon_(crater)
150,Al-Marrakushi,,8.57,55.77,-10.45,"Crater, craters",http://planetarynames.wr.usgs.gov/Feature/150,https://en.wikipedia.org/wiki/Al-Marrakushi_(crater)
199,Aloha,,2.55,-53.88,29.79,"Crater, craters",http://planetarynames.wr.usgs.gov/Feature/199,https://en.wikipedia.org/wiki/Aloha_(crater)
202,Alpetragius,,40.02,-4.51,-16.05,"Crater, craters",http://planetarynames.wr.usgs.gov/Feature/202,https://en.wikipedia.org/wiki/Alpetragius_(crater)
206,Alphonsus,,110.54,-2.85,-13.39,"Crater, craters",http://planetarynames.wr.usgs.gov/Feature/206,https://en.wikipedia.org/wiki/Alphonsus_(crater)
208,Alter,,64.73,-107.8,18.74,"Crater, craters",http://planetarynames.wr.usgs.gov/Feature/208,https://en.wikipedia.org/wiki/Alter_(crater)
223,Ameghino,,9.2,57.04,3.3,"Crater, craters",http://planetarynames.wr.usgs.gov/Feature/223,https://en.wikipedia.org/wiki/Ameghino_(crater)
232,Amici,,52.03,-172.23,-10.06,"Crater, craters",http://planetarynames.wr.usgs.gov/Feature/232,https://en.wikipedia.org/wiki/Amici_(crater)
236,Ammonius,,8.55,-0.83,-8.52,"Crater, craters",http://planetarynames.wr.usgs.gov/Feature/236,https://en.wikipedia.org/wiki/Ammonius_(crater)
240,Amontons,,2.47,46.78,-5.34,"Crater, craters",http://planetarynames.wr.usgs.gov/Feature/240,https://en.wikipedia.org/wiki/Amontons_(crater)
247,Amundsen,,103.39,83.07,-84.44,"Crater, craters",http://planetarynames.wr.usgs.gov/Feature/247,https://en.wikipedia.org/wiki/Amundsen_(crater)
252,Anaxagoras,,51.9,-10.17,73.48,"Crater, craters",http://planetarynames.wr.usgs.gov/Feature/252,https://en.wikipedia.org/wiki/Anaxagoras_(crater)
254,Anaximander,,68.71,-51.44,66.97,"Crater, craters",http://planetarynames.wr.usgs.gov/Feature/254,https://en.wikipedia.org/wiki/Anaximander_(crater)
255,Anaximenes,,81.12,-44.98,72.49,"Crater, craters",http://planetarynames.wr.usgs.gov/Feature/255,https://en.wikipedia.org/wiki/Anaximenes_(crater)
267,Anděl,,32.93,12.38,-10.41,"Crater, craters",http://planetarynames.wr.usgs.gov/Feature/267,https://en.wikipedia.org/wiki/Anděl_(crater)
259,Anders,,41.33,-143.3,-41.31,"Crater, craters",http://planetarynames.wr.usgs.gov/Feature/259,https://en.wikipedia.org/wiki/Anders_(crater)
11867,Anders' Earthrise,,40.15,100.47,-11.73,"Crater, craters",http://planetarynames.wr.usgs.gov/Feature/11867,https://en.wikipedia.org/wiki/Earthrise
260,Anderson,,105.33,170.79,15.5,"Crater, craters",http://planetarynames.wr.usgs.gov/Feature/260,https://en.wikipedia.org/wiki/Anderson_(crater)
261,Andersson,,13.42,-95.46,-49.95,"Crater, craters",http://planetarynames.wr.usgs.gov/Feature/261,https://en.wikipedia.org/wiki/Andersson_(crater)
265,Andronov,,16.57,146.11,-22.68,"Crater, craters",http://planetarynames.wr.usgs.gov/Feature/265,https://en.wikipedia.org/wiki/Andronov_(crater)
269,Ango,,0.87,-32.34,20.48,"Crater, craters",http://planetarynames.wr.usgs.gov/Feature/269,https://en.wikipedia.org/wiki/Mons_Vinogradov
272,Angström,,9.55,-41.67,29.9,"Crater, craters",http://planetarynames.wr.usgs.gov/Feature/272,https://en.wikipedia.org/wiki/Angström_(crater)
280,Ann,,2.12,-0.05,25.11,"Crater, craters",http://planetarynames.wr.usgs.gov/Feature/280,https://en.wikipedia.org/wiki/Mons_Bradley
283,Annegrit,,1.29,-25.64,29.43,"Crater, craters",http://planetarynames.wr.usgs.gov/Feature/283,https://en.wikipedia.org/wiki/Mons_La_Hire
289,Ansgarius,,91.42,79.72,-12.92,"Crater, craters",http://planetarynames.wr.usgs.gov/Feature/289,https://en.wikipedia.org/wiki/Ansgarius_(crater)
296,Antoniadi,,137.92,-173.06,-69.3,"Crater, craters",http://planetarynames.wr.usgs.gov/Feature/296,https://en.wikipedia.org/wiki/Antoniadi_(lunar_crater)
304,Anuchin,,62.14,101.66,-48.85,"Crater, craters",http://planetarynames.wr.usgs.gov/Feature/304,https://en.wikipedia.org/wiki/Anuchin_(crater)
307,Anville,,10.26,49.51,1.84,"Crater, craters",http://planetarynames.wr.usgs.gov/Feature/307,https://en.wikipedia.org/wiki/Anville_(crater)
320,Apianus,,63.44,7.87,-26.96,"Crater, craters",http://planetarynames.wr.usgs.gov/Feature/320,https://en.wikipedia.org/wiki/Apianus_(crater)
326,Apollo,,524.23,-151.48,-35.69,"Crater, craters",http://planetarynames.wr.usgs.gov/Feature/326,https://en.wikipedia.org/wiki/Apollo_(crater)
328,Apollonius,,50.66,60.96,4.51,"Crater, craters",http://planetarynames.wr.usgs.gov/Feature/328,https://en.wikipedia.org/wiki/Apollonius_(crater)
330,Appleton,,64.59,158.17,37.05,"Crater, craters",http://planetarynames.wr.usgs.gov/Feature/330,https://en.wikipedia.org/wiki/Appleton_(crater)
337,Arago,,25.51,21.43,6.15,"Crater, craters",http://planetarynames.wr.usgs.gov/Feature/337,https://en.wikipedia.org/wiki/Arago_(lunar_crater)
344,Aratus,,10.23,4.51,23.58,"Crater, craters",http://planetarynames.wr.usgs.gov/Feature/344,https://en.wikipedia.org/wiki/Aratus_(crater)
350,Archimedes,,81.04,-3.99,29.72,"Crater, craters",http://planetarynames.wr.usgs.gov/Feature/350,https://en.wikipedia.org/wiki/Archimedes_(crater)
351,Archytas,,31.95,4.99,58.87,"Crater, craters",http://planetarynames.wr.usgs.gov/Feature/351,https://en.wikipedia.org/wiki/Archytas_(crater)
363,Argelander,,33.72,5.8,-16.55,"Crater, craters",http://planetarynames.wr.usgs.gov/Feature/363,https://en.wikipedia.org/wiki/Argelander_(crater)
373,Ariadaeus,,10.4,17.28,4.55,"Crater, craters",http://planetarynames.wr.usgs.gov/Feature/373,https://en.wikipedia.org/wiki/Ariadaeus_(crater)
6784,[Ariosto],,0,95.6,-3.6,"Crater, craters",http://planetarynames.wr.usgs.gov/Feature/6784,
380,Aristarchus,,39.99,-47.49,23.73,"Crater, craters",http://planetarynames.wr.usgs.gov/Feature/380,https://en.wikipedia.org/wiki/Aristarchus_(crater)
381,Aristillus,,54.37,1.21,33.88,"Crater, craters",http://planetarynames.wr.usgs.gov/Feature/381,https://en.wikipedia.org/wiki/Aristillus_(crater)
382,Aristoteles,,87.57,17.32,50.24,"Crater, craters",http://planetarynames.wr.usgs.gov/Feature/382,https://en.wikipedia.org/wiki/Aristoteles_(crater)
385,Armiński,,26.76,154.22,-16.36,"Crater, craters",http://planetarynames.wr.usgs.gov/Feature/385,https://en.wikipedia.org/wiki/Armiński_(crater)
386,Armstrong,,4.21,24.94,1.35,"Crater, craters",http://planetarynames.wr.usgs.gov/Feature/386,https://en.wikipedia.org/wiki/Armstrong_(crater)
387,Arnold,,93.13,35.83,66.98,"Crater, craters",http://planetarynames.wr.usgs.gov/Feature/387,https://en.wikipedia.org/wiki/Arnold_(crater)
391,Arrhenius,,40.93,-91.45,-55.58,"Crater, craters",http://planetarynames.wr.usgs.gov/Feature/391,https://en.wikipedia.org/wiki/Arrhenius_(lunar_crater)
398,Artamonov,,62.45,103.79,25.44,"Crater, craters",http://planetarynames.wr.usgs.gov/Feature/398,https://en.wikipedia.org/wiki/Artamonov_(crater)
402,Artem'ev,,66.39,-145.22,10.4,"Crater, craters",http://planetarynames.wr.usgs.gov/Feature/402,https://en.wikipedia.org/wiki/Artem%27ev_(crater)
399,Artemis,,2.28,-25.36,25.03,"Crater, craters",http://planetarynames.wr.usgs.gov/Feature/399,https://en.wikipedia.org/wiki/Artemis_(crater)
405,Artsimovich,,7.96,-36.63,27.61,"Crater, craters",http://planetarynames.wr.usgs.gov/Feature/405,https://en.wikipedia.org/wiki/Artsimovich_(crater)
411,Aryabhata,,21.89,35.17,6.2,"Crater, craters",http://planetarynames.wr.usgs.gov/Feature/411,https://en.wikipedia.org/wiki/Aryabhata_(crater)
412,Arzachel,,96.99,-1.93,-18.26,"Crater, craters",http://planetarynames.wr.usgs.gov/Feature/412,https://en.wikipedia.org/wiki/Arzachel_(crater)
413,Asada,,12.37,49.9,7.25,"Crater, craters",http://planetarynames.wr.usgs.gov/Feature/413,https://en.wikipedia.org/wiki/Asada_(crater)
414,Asclepi,,40.56,25.52,-55.19,"Crater, craters",http://planetarynames.wr.usgs.gov/Feature/414,https://en.wikipedia.org/wiki/Asclepi_(crater)
422,Ashbrook,,157.68,-110.58,-81.1,"Crater, craters",http://planetarynames.wr.usgs.gov/Feature/422,https://en.wikipedia.org/wiki/Ashbrook_(crater)
440,Aston,,44.48,-87.68,32.77,"Crater, craters",http://planetarynames.wr.usgs.gov/Feature/440,https://en.wikipedia.org/wiki/Aston_(crater)
458,Atlas,,88.12,44.38,46.74,"Crater, craters",http://planetarynames.wr.usgs.gov/Feature/458,https://en.wikipedia.org/wiki/Atlas_(crater)
466,Atwood,,28.64,57.78,-5.88,"Crater, craters",http://planetarynames.wr.usgs.gov/Feature/466,https://en.wikipedia.org/wiki/Atwood_(crater)
6786,[Austen],,0,93.55,-9,"Crater, craters",http://planetarynames.wr.usgs.gov/Feature/6786,
493,Autolycus,,38.88,1.49,30.68,"Crater, craters",http://planetarynames.wr.usgs.gov/Feature/493,https://en.wikipedia.org/wiki/Autolycus_(crater)
495,Auwers,,19.64,17.12,15,"Crater, craters",http://planetarynames.wr.usgs.gov/Feature/495,https://en.wikipedia.org/wiki/Auwers_(crater)
497,Auzout,,32.92,64.01,10.21,"Crater, craters",http://planetarynames.wr.usgs.gov/Feature/497,https://en.wikipedia.org/wiki/Auzout_(crater)
507,Avery,,10.73,81.37,-1.32,"Crater, craters",http://planetarynames.wr.usgs.gov/Feature/507,https://en.wikipedia.org/wiki/Avery_(crater)
509,Avicenna,,72.99,-97.28,39.63,"Crater, craters",http://planetarynames.wr.usgs.gov/Feature/509,https://en.wikipedia.org/wiki/Avicenna_(crater)
510,Avogadro,,129.84,165.36,63.21,"Crater, craters",http://planetarynames.wr.usgs.gov/Feature/510,https://en.wikipedia.org/wiki/Avogadro_(crater)
524,Azophi,,47.54,12.7,-22.19,"Crater, craters",http://planetarynames.wr.usgs.gov/Feature/524,https://en.wikipedia.org/wiki/Azophi_(crater)
529,Baade,,57.85,-82.03,-44.75,"Crater, craters",http://planetarynames.wr.usgs.gov/Feature/529,https://en.wikipedia.org/wiki/Baade_(crater)
531,Babakin,,19.15,123.26,-20.81,"Crater, craters",http://planetarynames.wr.usgs.gov/Feature/531,https://en.wikipedia.org/wiki/Babakin_(lunar_crater)
533,Babbage,,146.56,-57.38,59.56,"Crater, craters",http://planetarynames.wr.usgs.gov/Feature/533,https://en.wikipedia.org/wiki/Babbage_(crater)
535,Babcock,,95.28,94.14,4.13,"Crater, craters",http://planetarynames.wr.usgs.gov/Feature/535,https://en.wikipedia.org/wiki/Babcock_(crater)
541,Back,,34.63,80.67,1.2,"Crater, craters",http://planetarynames.wr.usgs.gov/Feature/541,https://en.wikipedia.org/wiki/Back_(crater)
542,Backlund,,75.46,103.35,-16.22,"Crater, craters",http://planetarynames.wr.usgs.gov/Feature/542,https://en.wikipedia.org/wiki/Backlund_(crater)
543,Baco,,65.31,19.1,-51.04,"Crater, craters",http://planetarynames.wr.usgs.gov/Feature/543,https://en.wikipedia.org/wiki/Baco_(crater)
560,Baillaud,,89.44,37.35,74.61,"Crater, craters",http://planetarynames.wr.usgs.gov/Feature/560,https://en.wikipedia.org/wiki/Baillaud_(crater)
561,Bailly,,300.56,-68.9,-66.82,"Crater, craters",http://planetarynames.wr.usgs.gov/Feature/561,https://en.wikipedia.org/wiki/Bailly_(crater)
562,Baily,,25.68,30.56,49.78,"Crater, craters",http://planetarynames.wr.usgs.gov/Feature/562,https://en.wikipedia.org/wiki/Baily_(crater)
569,Balandin,,11.81,152.58,-18.94,"Crater, craters",http://planetarynames.wr.usgs.gov/Feature/569,https://en.wikipedia.org/wiki/Balandin_(crater)
570,Balboa,,69.19,-83.31,19.24,"Crater, craters",http://planetarynames.wr.usgs.gov/Feature/570,https://en.wikipedia.org/wiki/Balboa_(lunar_crater)
574,Baldet,,55.76,-151.96,-53.32,"Crater, craters",http://planetarynames.wr.usgs.gov/Feature/574,https://en.wikipedia.org/wiki/Baldet_(lunar_crater)
579,Ball,,40.31,-8.39,-35.92,"Crater, craters",http://planetarynames.wr.usgs.gov/Feature/579,https://en.wikipedia.org/wiki/Ball_(crater)
580,Balmer,,136.3,70.22,-20.27,"Crater, craters",http://planetarynames.wr.usgs.gov/Feature/580,https://en.wikipedia.org/wiki/Balmer_(crater)
6788,[Balzac],,0,95,-8,"Crater, craters",http://planetarynames.wr.usgs.gov/Feature/6788,
592,Banachiewicz,,99.09,80.01,5.28,"Crater, craters",http://planetarynames.wr.usgs.gov/Feature/592,https://en.wikipedia.org/wiki/Banachiewicz_(crater)
594,Bancroft,,12.5,-6.43,28.07,"Crater, craters",http://planetarynames.wr.usgs.gov/Feature/594,https://en.wikipedia.org/wiki/Bancroft_(crater)
597,Banting,,5.15,16.43,26.58,"Crater, craters",http://planetarynames.wr.usgs.gov/Feature/597,https://en.wikipedia.org/wiki/Banting_(crater)
605,Barbier,,65.38,157.93,-23.85,"Crater, craters",http://planetarynames.wr.usgs.gov/Feature/605,https://en.wikipedia.org/wiki/Barbier_(crater)
606,Barkla,,40.9,67.22,-10.67,"Crater, craters",http://planetarynames.wr.usgs.gov/Feature/606,https://en.wikipedia.org/wiki/Barkla_(crater)
608,Barnard,,115.73,85.95,-29.79,"Crater, craters",http://planetarynames.wr.usgs.gov/Feature/608,https://www.wikipedia.org/wiki/Barnard_(crater)
613,Barocius,,82.72,16.81,-44.98,"Crater, craters",http://planetarynames.wr.usgs.gov/Feature/613,https://www.wikipedia.org/wiki/Barocius_(crater)
616,Barringer,,66.89,-150.43,-28.22,"Crater, craters",http://planetarynames.wr.usgs.gov/Feature/616,NO
617,Barrow,,93.82,7.59,71.28,"Crater, craters",http://planetarynames.wr.usgs.gov/Feature/617,https://www.wikipedia.org/wiki/Barrow_(crater)
621,Bartels,,54.95,-89.85,24.51,"Crater, craters",http://planetarynames.wr.usgs.gov/Feature/621,https://www.wikipedia.org/wiki/Bartels_(crater)
6790,[Baudelaire],,0,123.1,-23.2,"Crater, craters",http://planetarynames.wr.usgs.gov/Feature/6790,NO
644,Bawa,,1.57,102.56,-25.28,"Crater, craters",http://planetarynames.wr.usgs.gov/Feature/644,https://www.wikipedia.org/wiki/Bawa_(crater)
646,Bayer,,48.51,-35.14,-51.62,"Crater, craters",http://planetarynames.wr.usgs.gov/Feature/646,https://www.wikipedia.org/wiki/Bayer_(crater)
651,Beals,,52.61,86.58,37.11,"Crater, craters",http://planetarynames.wr.usgs.gov/Feature/651,https://www.wikipedia.org/wiki/Beals_(crater)
653,Beaumont,,50.69,28.82,-18.08,"Crater, craters",http://planetarynames.wr.usgs.gov/Feature/653,https://www.wikipedia.org/wiki/Beaumont_(crater)
654,Becquerel,,62.86,129.5,40.79,"Crater, craters",http://planetarynames.wr.usgs.gov/Feature/654,https://www.wikipedia.org/wiki/Becquerel_(crater)
727,Bečvář,,66.62,125.07,-2.57,"Crater, craters",http://planetarynames.wr.usgs.gov/Feature/727,https://www.wikipedia.org/wiki/Bečvář_(crater)
658,Beer,,9.06,-9.1,27.07,"Crater, craters",http://planetarynames.wr.usgs.gov/Feature/658,https://www.wikipedia.org/wiki/Beer_(crater)
662,Behaim,,56.21,79.41,-16.61,"Crater, craters",http://planetarynames.wr.usgs.gov/Feature/662,https://www.wikipedia.org/wiki/Behaim_(crater)
664,Beijerinck,,76.77,151.84,-13.4,"Crater, craters",http://planetarynames.wr.usgs.gov/Feature/664,https://www.wikipedia.org/wiki/Beijerinck_(crater)
666,Beketov,,8.3,29.18,16.23,"Crater, craters",http://planetarynames.wr.usgs.gov/Feature/666,https://www.wikipedia.org/wiki/Beketov_(crater)
947,Béla,,10.07,2.27,24.67,"Crater, craters",http://planetarynames.wr.usgs.gov/Feature/947,https://www.wikipedia.org/wiki/Béla_(crater)
684,Bel'kovich,,215.08,90.15,61.53,"Crater, craters",http://planetarynames.wr.usgs.gov/Feature/684,https://www.wikipedia.org/wiki/Bel'kovich_(crater)
672,Bell,,86.33,-96.53,21.98,"Crater, craters",http://planetarynames.wr.usgs.gov/Feature/672,https://www.wikipedia.org/wiki/Bell_(crater)
674,Bellinsgauzen (Bellingshausen),,63.23,-164.85,-60.72,"Crater, craters",http://planetarynames.wr.usgs.gov/Feature/674,NO
677,Bellot,,17.5,48.19,-12.48,"Crater, craters",http://planetarynames.wr.usgs.gov/Feature/677,https://www.wikipedia.org/wiki/Bellot_(crater)
679,Belopol'skiy,,61.9,-128.23,-17.25,"Crater, craters",http://planetarynames.wr.usgs.gov/Feature/679,https://www.wikipedia.org/wiki/Belopol'skiy_(crater)
682,Belyaev,,55.9,143.11,23.1,"Crater, craters",http://planetarynames.wr.usgs.gov/Feature/682,https://www.wikipedia.org/wiki/Belyaev_(crater)
689,Benedict,,13.83,141.54,4.35,"Crater, craters",http://planetarynames.wr.usgs.gov/Feature/689,https://www.wikipedia.org/wiki/Bwww.dict_(crater)
700,Bergman,,22.51,137.49,6.97,"Crater, craters",http://planetarynames.wr.usgs.gov/Feature/700,https://www.wikipedia.org/wiki/Bergman_(crater)
701,Bergstrand,,42.98,176.44,-18.72,"Crater, craters",http://planetarynames.wr.usgs.gov/Feature/701,https://www.wikipedia.org/wiki/Bergstrand_(crater)
702,Berkner,,87.62,-105.24,25.13,"Crater, craters",http://planetarynames.wr.usgs.gov/Feature/702,https://www.wikipedia.org/wiki/Berkner_(crater)
703,Berlage,,93.75,-163.61,-63.04,"Crater, craters",http://planetarynames.wr.usgs.gov/Feature/703,https://www.wikipedia.org/wiki/Berlage_(crater)
6792,[Bernini],,0,30,14.9,"Crater, craters",http://planetarynames.wr.usgs.gov/Feature/6792,NO
709,Bernoulli,,47.3,60.61,34.93,"Crater, craters",http://planetarynames.wr.usgs.gov/Feature/709,https://www.wikipedia.org/wiki/Bernoulli_(crater)
710,Berosus,,75.24,69.99,33.5,"Crater, craters",http://planetarynames.wr.usgs.gov/Feature/710,https://www.wikipedia.org/wiki/Berosus_(crater)
716,Berzelius,,48.53,50.95,36.55,"Crater, craters",http://planetarynames.wr.usgs.gov/Feature/716,https://www.wikipedia.org/wiki/Berzelius_(crater)
719,Bessarion,,9.84,-37.31,14.85,"Crater, craters",http://planetarynames.wr.usgs.gov/Feature/719,https://www.wikipedia.org/wiki/Bessarion_(crater)
720,Bessel,,15.56,17.92,21.73,"Crater, craters",http://planetarynames.wr.usgs.gov/Feature/720,https://www.wikipedia.org/wiki/Bessel_(crater)
724,Bettinus,,71.78,-45.16,-63.4,"Crater, craters",http://planetarynames.wr.usgs.gov/Feature/724,https://www.wikipedia.org/wiki/Bettinus_(crater)
728,Bhabha,,70.25,-165.31,-55.5,"Crater, craters",http://planetarynames.wr.usgs.gov/Feature/728,https://www.wikipedia.org/wiki/Bhabha_(crater)
734,Bianchini,,37.59,-34.37,48.78,"Crater, craters",http://planetarynames.wr.usgs.gov/Feature/734,https://www.wikipedia.org/wiki/Bianchini_(crater)
739,Biela,,77.03,51.63,-54.99,"Crater, craters",http://planetarynames.wr.usgs.gov/Feature/739,https://www.wikipedia.org/wiki/Biela_(crater)
745,Bilharz,,44.55,56.34,-5.83,"Crater, craters",http://planetarynames.wr.usgs.gov/Feature/745,https://www.wikipedia.org/wiki/Bilharz_(crater)
747,Billy,,45.57,-50.24,-13.83,"Crater, craters",http://planetarynames.wr.usgs.gov/Feature/747,https://www.wikipedia.org/wiki/Billy_(crater)
749,Bingham,,34.99,115.05,8.02,"Crater, craters",http://planetarynames.wr.usgs.gov/Feature/749,https://www.wikipedia.org/wiki/Bingham_(crater)
750,Biot,,13.01,51.08,-22.7,"Crater, craters",http://planetarynames.wr.usgs.gov/Feature/750,https://www.wikipedia.org/wiki/Biot_(crater)
752,Birkeland,,81.64,174.01,-30.17,"Crater, craters",http://planetarynames.wr.usgs.gov/Feature/752,https://www.wikipedia.org/wiki/Birkeland_(crater)
753,Birkhoff,,329.81,-145.65,58.45,"Crater, craters",http://planetarynames.wr.usgs.gov/Feature/753,https://www.wikipedia.org/wiki/Birkhoff_(crater)
754,Birmingham,,89.92,-10.7,65.12,"Crater, craters",http://planetarynames.wr.usgs.gov/Feature/754,https://www.wikipedia.org/wiki/Birmingham_(crater)
755,Birt,,15.81,-8.59,-22.36,"Crater, craters",http://planetarynames.wr.usgs.gov/Feature/755,https://www.wikipedia.org/wiki/Birt_(crater)
14748,Bi Sheng,,55.27,148.46,78.35,"Crater, craters",http://planetarynames.wr.usgs.gov/Feature/14748,https://www.wikipedia.org/wiki/Bi Shwww._(crater)
759,Bjerknes,,48.18,113.69,-38.5,"Crater, craters",http://planetarynames.wr.usgs.gov/Feature/759,https://www.wikipedia.org/wiki/Bjerknes_(crater)
762,Black,,19.46,80.39,-9.2,"Crater, craters",http://planetarynames.wr.usgs.gov/Feature/762,https://www.wikipedia.org/wiki/Black_(crater)
764,Blackett,,145.31,-115.84,-37.55,"Crater, craters",http://planetarynames.wr.usgs.gov/Feature/764,https://www.wikipedia.org/wiki/Blackett_(crater)
765,Blagg,,4.97,1.46,1.22,"Crater, craters",http://planetarynames.wr.usgs.gov/Feature/765,https://www.wikipedia.org/wiki/Blagg_(crater)
767,Blancanus,,105.82,-21.63,-63.77,"Crater, craters",http://planetarynames.wr.usgs.gov/Feature/767,https://www.wikipedia.org/wiki/Blancanus_(crater)
768,Blanchard,,37.46,-93.5,-58.25,"Crater, craters",http://planetarynames.wr.usgs.gov/Feature/768,https://www.wikipedia.org/wiki/Blanchard_(crater)
770,Blanchinus,,59.9,2.44,-25.32,"Crater, craters",http://planetarynames.wr.usgs.gov/Feature/770,https://www.wikipedia.org/wiki/Blanchinus_(crater)
773,Blazhko,,51.11,-147.86,31.37,"Crater, craters",http://planetarynames.wr.usgs.gov/Feature/773,https://www.wikipedia.org/wiki/Blazhko_(crater)
776,Bliss,,22.85,-13.78,53.04,"Crater, craters",http://planetarynames.wr.usgs.gov/Feature/776,https://www.wikipedia.org/wiki/Bliss_(crater)
786,Bobillier,,6.04,15.44,19.63,"Crater, craters",http://planetarynames.wr.usgs.gov/Feature/786,https://www.wikipedia.org/wiki/Bobillier_(crater)
787,Bobone,,32.14,-132.12,26.7,"Crater, craters",http://planetarynames.wr.usgs.gov/Feature/787,https://www.wikipedia.org/wiki/Bobone_(crater)
790,Bode,,17.8,-2.45,6.71,"Crater, craters",http://planetarynames.wr.usgs.gov/Feature/790,https://www.wikipedia.org/wiki/Bode_(crater)
793,Boethius,,11.17,72.33,5.57,"Crater, craters",http://planetarynames.wr.usgs.gov/Feature/793,https://www.wikipedia.org/wiki/Boethius_(crater)
796,Boguslawsky,,94.59,43.26,-72.9,"Crater, craters",http://planetarynames.wr.usgs.gov/Feature/796,https://www.wikipedia.org/wiki/Boguslawsky_(crater)
797,Bohnenberger,,31.74,40.06,-16.24,"Crater, craters",http://planetarynames.wr.usgs.gov/Feature/797,https://www.wikipedia.org/wiki/Bohnwww.erger_(crater)
798,Bohr,,70.07,-86.52,12.71,"Crater, craters",http://planetarynames.wr.usgs.gov/Feature/798,https://www.wikipedia.org/wiki/Bohr_(crater)
800,Bok,,43.03,-171.58,-20.26,"Crater, craters",http://planetarynames.wr.usgs.gov/Feature/800,https://www.wikipedia.org/wiki/Bok_(crater)
805,Boltzmann,,72.31,-90.41,-74.82,"Crater, craters",http://planetarynames.wr.usgs.gov/Feature/805,https://www.wikipedia.org/wiki/Boltzmann_(crater)
806,Bolyai,,102.22,126.12,-33.85,"Crater, craters",http://planetarynames.wr.usgs.gov/Feature/806,https://www.wikipedia.org/wiki/Bolyai_(crater)
808,Bombelli,,9.72,56.19,5.28,"Crater, craters",http://planetarynames.wr.usgs.gov/Feature/808,https://www.wikipedia.org/wiki/Bombelli_(crater)
813,Bondarenko,,28.26,136.89,-17.24,"Crater, craters",http://planetarynames.wr.usgs.gov/Feature/813,https://www.wikipedia.org/wiki/Bondarwww.o_(crater)
817,Bonpland,,59.25,-17.33,-8.38,"Crater, craters",http://planetarynames.wr.usgs.gov/Feature/817,https://www.wikipedia.org/wiki/Bonpland_(crater)
818,Boole,,61.34,-87.29,63.79,"Crater, craters",http://planetarynames.wr.usgs.gov/Feature/818,https://www.wikipedia.org/wiki/Boole_(crater)
820,Borda,,45.4,46.52,-25.2,"Crater, craters",http://planetarynames.wr.usgs.gov/Feature/820,https://www.wikipedia.org/wiki/Borda_(crater)
824,Borel,,4.66,26.42,22.37,"Crater, craters",http://planetarynames.wr.usgs.gov/Feature/824,https://www.wikipedia.org/wiki/Borel_(crater)
826,Boris,,1.73,-33.5,30.53,"Crater, craters",http://planetarynames.wr.usgs.gov/Feature/826,https://www.wikipedia.org/wiki/Boris_(crater)
827,Borman,,50.72,-148.25,-39.06,"Crater, craters",http://planetarynames.wr.usgs.gov/Feature/827,https://www.wikipedia.org/wiki/Borman_(crater)
828,Born,,15.07,66.83,-6.05,"Crater, craters",http://planetarynames.wr.usgs.gov/Feature/828,https://www.wikipedia.org/wiki/Born_(crater)
15004,Borya,,0.4,-35.01,38.28,"Crater, craters",http://planetarynames.wr.usgs.gov/Feature/15004,https://www.wikipedia.org/wiki/Borya_(crater)
14524,Bosch,,19.58,133.54,86.82,"Crater, craters",http://planetarynames.wr.usgs.gov/Feature/14524,https://www.wikipedia.org/wiki/Bosch_(crater)
831,Boscovich,,41.53,11.01,9.71,"Crater, craters",http://planetarynames.wr.usgs.gov/Feature/831,https://www.wikipedia.org/wiki/Boscovich_(crater)
832,Bose,,92.55,-169.36,-53.95,"Crater, craters",http://planetarynames.wr.usgs.gov/Feature/832,https://www.wikipedia.org/wiki/Bose_(crater)
836,Boss,,50.2,88.68,45.75,"Crater, craters",http://planetarynames.wr.usgs.gov/Feature/836,https://www.wikipedia.org/wiki/Boss_(crater)
839,Bouguer,,22.23,-35.82,52.32,"Crater, craters",http://planetarynames.wr.usgs.gov/Feature/839,https://www.wikipedia.org/wiki/Bouguer_(crater)
844,Boussingault,,127.61,53.73,-70.21,"Crater, craters",http://planetarynames.wr.usgs.gov/Feature/844,https://www.wikipedia.org/wiki/Boussingault_(crater)
846,Bowditch,,43.04,103.07,-24.97,"Crater, craters",http://planetarynames.wr.usgs.gov/Feature/846,https://www.wikipedia.org/wiki/Bowditch_(crater)
847,Bowen,,8.09,9.1,17.63,"Crater, craters",http://planetarynames.wr.usgs.gov/Feature/847,https://www.wikipedia.org/wiki/Bowwww.(crater)
851,Boyle,,57.13,177.89,-53.29,"Crater, craters",http://planetarynames.wr.usgs.gov/Feature/851,https://www.wikipedia.org/wiki/Boyle_(crater)
855,Brackett,,8.87,23.54,17.84,"Crater, craters",http://planetarynames.wr.usgs.gov/Feature/855,https://www.wikipedia.org/wiki/Brackett_(crater)
857,Bragg,,77.21,-103.44,42.33,"Crater, craters",http://planetarynames.wr.usgs.gov/Feature/857,https://www.wikipedia.org/wiki/Bragg_(crater)
864,Brashear,,60.16,-171.57,-73.54,"Crater, craters",http://planetarynames.wr.usgs.gov/Feature/864,https://www.wikipedia.org/wiki/Brashear_(crater)
14564,Braude,,11.28,158.88,-81.82,"Crater, craters",http://planetarynames.wr.usgs.gov/Feature/14564,https://www.wikipedia.org/wiki/Braude_(crater)
866,Brayley,,14.17,-36.94,20.9,"Crater, craters",http://planetarynames.wr.usgs.gov/Feature/866,https://www.wikipedia.org/wiki/Brayley_(crater)
868,Bredikhin,,61.68,-158.37,17.25,"Crater, craters",http://planetarynames.wr.usgs.gov/Feature/868,https://www.wikipedia.org/wiki/Bredikhin_(crater)
869,Breislak,,48.64,18.31,-48.31,"Crater, craters",http://planetarynames.wr.usgs.gov/Feature/869,https://www.wikipedia.org/wiki/Breislak_(crater)
873,Brenner,,90.01,39.11,-39.09,"Crater, craters",http://planetarynames.wr.usgs.gov/Feature/873,https://www.wikipedia.org/wiki/Brwww.er_(crater)
874,Brewster,,9.83,34.69,23.27,"Crater, craters",http://planetarynames.wr.usgs.gov/Feature/874,https://www.wikipedia.org/wiki/Brewster_(crater)
875,Brianchon,,137.26,-88.36,74.75,"Crater, craters",http://planetarynames.wr.usgs.gov/Feature/875,https://www.wikipedia.org/wiki/Brianchon_(crater)
880,Bridgman,,81.89,136.98,43.39,"Crater, craters",http://planetarynames.wr.usgs.gov/Feature/880,https://www.wikipedia.org/wiki/Bridgman_(crater)
881,Briggs,,36.75,-69.19,26.45,"Crater, craters",http://planetarynames.wr.usgs.gov/Feature/881,https://www.wikipedia.org/wiki/Briggs_(crater)
883,Brisbane,,44.32,68.76,-49.2,"Crater, craters",http://planetarynames.wr.usgs.gov/Feature/883,https://www.wikipedia.org/wiki/Brisbane_(crater)
887,Bronk,,66.16,-134.67,25.9,"Crater, craters",http://planetarynames.wr.usgs.gov/Feature/887,https://www.wikipedia.org/wiki/Bronk_(crater)
893,Brouwer,,119.6,-124.75,-35.82,"Crater, craters",http://planetarynames.wr.usgs.gov/Feature/893,https://www.wikipedia.org/wiki/Brouwer_(crater)
894,Brown,,34.03,-17.99,-46.53,"Crater, craters",http://planetarynames.wr.usgs.gov/Feature/894,https://www.wikipedia.org/wiki/Brown_(crater)
897,Bruce,,6.14,0.37,1.16,"Crater, craters",http://planetarynames.wr.usgs.gov/Feature/897,https://www.wikipedia.org/wiki/Bruce_(crater)
900,Brunner,,50.66,90.91,-9.86,"Crater, craters",http://planetarynames.wr.usgs.gov/Feature/900,https://www.wikipedia.org/wiki/Brunner_(crater)
906,Buch,,51.31,17.68,-38.9,"Crater, craters",http://planetarynames.wr.usgs.gov/Feature/906,https://www.wikipedia.org/wiki/Buch_(crater)
910,Buffon,,105.76,-133.53,-40.64,"Crater, craters",http://planetarynames.wr.usgs.gov/Feature/910,https://www.wikipedia.org/wiki/Buffon_(crater)
913,Buisson,,61.27,112.95,-1.47,"Crater, craters",http://planetarynames.wr.usgs.gov/Feature/913,https://www.wikipedia.org/wiki/Buisson_(crater)
917,Bullialdus,,60.72,-22.26,-20.75,"Crater, craters",http://planetarynames.wr.usgs.gov/Feature/917,https://www.wikipedia.org/wiki/Bullialdus_(crater)
920,Bunsen,,55.22,-85.46,41.4,"Crater, craters",http://planetarynames.wr.usgs.gov/Feature/920,https://www.wikipedia.org/wiki/Bunswww.(crater)
922,Burckhardt,,54.36,56.39,31.11,"Crater, craters",http://planetarynames.wr.usgs.gov/Feature/922,https://www.wikipedia.org/wiki/Burckhardt_(crater)
948,Bürg,,41.04,28.21,45.07,"Crater, craters",http://planetarynames.wr.usgs.gov/Feature/948,https://www.wikipedia.org/wiki/Bürg_(crater)
925,Burnham,,24.09,7.25,-13.92,"Crater, craters",http://planetarynames.wr.usgs.gov/Feature/925,https://www.wikipedia.org/wiki/Burnham_(crater)
949,Büsching,,53.49,19.96,-38.04,"Crater, craters",http://planetarynames.wr.usgs.gov/Feature/949,https://www.wikipedia.org/wiki/Büsching_(crater)
934,Butlerov,,38.77,-108.81,12.05,"Crater, craters",http://planetarynames.wr.usgs.gov/Feature/934,https://www.wikipedia.org/wiki/Butlerov_(crater)
939,Buys-Ballot,,66.38,174.82,20.86,"Crater, craters",http://planetarynames.wr.usgs.gov/Feature/939,https://www.wikipedia.org/wiki/Buys-Ballot_(crater)
941,Byrd,,97.49,10.07,85.43,"Crater, craters",http://planetarynames.wr.usgs.gov/Feature/941,https://www.wikipedia.org/wiki/Byrd_(crater)
943,Byrgius,,84.46,-65.38,-24.73,"Crater, craters",http://planetarynames.wr.usgs.gov/Feature/943,https://www.wikipedia.org/wiki/Byrgius_(crater)
952,Cabannes,,81.3,-170.21,-61.24,"Crater, craters",http://planetarynames.wr.usgs.gov/Feature/952,https://www.wikipedia.org/wiki/Cabannes_(crater)
953,Cabeus,,100.58,-42.13,-85.33,"Crater, craters",http://planetarynames.wr.usgs.gov/Feature/953,https://www.wikipedia.org/wiki/Cabeus_(crater)
960,Cailleux,,52.85,153.5,-60.41,"Crater, craters",http://planetarynames.wr.usgs.gov/Feature/960,https://www.wikipedia.org/wiki/Cailleux_(crater)
14749,Cai Lun,,44.89,113.66,80.12,"Crater, craters",http://planetarynames.wr.usgs.gov/Feature/14749,https://www.wikipedia.org/wiki/Cai Lun_(crater)
964,Cajal,,8.57,31.08,12.59,"Crater, craters",http://planetarynames.wr.usgs.gov/Feature/964,https://www.wikipedia.org/wiki/Cajal_(crater)
965,Cajori,,74.65,168.7,-47.67,"Crater, craters",http://planetarynames.wr.usgs.gov/Feature/965,https://www.wikipedia.org/wiki/Cajori_(crater)
972,Calippus,,34.03,10.72,38.92,"Crater, craters",http://planetarynames.wr.usgs.gov/Feature/972,https://www.wikipedia.org/wiki/Calippus_(crater)
986,Cameron,,10.91,45.93,6.19,"Crater, craters",http://planetarynames.wr.usgs.gov/Feature/986,https://www.wikipedia.org/wiki/Cameron_(crater)
6795,[Camoens],,31.37,84.98,0.62,"Crater, craters",http://planetarynames.wr.usgs.gov/Feature/6795,NO
989,Campanus,,46.41,-27.9,-28.04,"Crater, craters",http://planetarynames.wr.usgs.gov/Feature/989,https://www.wikipedia.org/wiki/Campanus_(crater)
990,Campbell,,222.48,152.91,45.57,"Crater, craters",http://planetarynames.wr.usgs.gov/Feature/990,https://www.wikipedia.org/wiki/Campbell_(crater)
1004,Cannizzaro,,54.51,-99.73,55.5,"Crater, craters",http://planetarynames.wr.usgs.gov/Feature/1004,https://www.wikipedia.org/wiki/Cannizzaro_(crater)
1005,Cannon,,57.58,81.36,19.88,"Crater, craters",http://planetarynames.wr.usgs.gov/Feature/1005,https://www.wikipedia.org/wiki/Cannon_(crater)
1008,Cantor,,75.72,118.69,38.04,"Crater, craters",http://planetarynames.wr.usgs.gov/Feature/1008,https://www.wikipedia.org/wiki/Cantor_(crater)
1011,Capella,,48.13,34.92,-7.65,"Crater, craters",http://planetarynames.wr.usgs.gov/Feature/1011,https://www.wikipedia.org/wiki/Capella_(crater)
1014,Capuanus,,59.69,-26.73,-34.09,"Crater, craters",http://planetarynames.wr.usgs.gov/Feature/1014,https://www.wikipedia.org/wiki/Capuanus_(crater)
1016,Cardanus,,49.57,-72.5,13.27,"Crater, craters",http://planetarynames.wr.usgs.gov/Feature/1016,https://www.wikipedia.org/wiki/Cardanus_(crater)
1018,Carlini,,10.66,-24.12,33.75,"Crater, craters",http://planetarynames.wr.usgs.gov/Feature/1018,https://www.wikipedia.org/wiki/Carlini_(crater)
1019,Carlos,,4.67,2.28,24.91,"Crater, craters",http://planetarynames.wr.usgs.gov/Feature/1019,https://www.wikipedia.org/wiki/Carlos_(crater)
1022,Carmichael,,19.73,40.36,19.53,"Crater, craters",http://planetarynames.wr.usgs.gov/Feature/1022,https://www.wikipedia.org/wiki/Carmichael_(crater)
1023,Carnot,,126.06,-144.2,52.09,"Crater, craters",http://planetarynames.wr.usgs.gov/Feature/1023,https://www.wikipedia.org/wiki/Carnot_(crater)
1024,Carol,,6.25,122.37,8.48,"Crater, craters",http://planetarynames.wr.usgs.gov/Feature/1024,https://www.wikipedia.org/wiki/Carol_(crater)
1026,Carpenter,,59.06,-51.23,69.52,"Crater, craters",http://planetarynames.wr.usgs.gov/Feature/1026,https://www.wikipedia.org/wiki/Carpwww.er_(crater)
1029,Carrel,,15.59,26.68,10.67,"Crater, craters",http://planetarynames.wr.usgs.gov/Feature/1029,https://www.wikipedia.org/wiki/Carrel_(crater)
1031,Carrillo,,17.85,80.96,-2.11,"Crater, craters",http://planetarynames.wr.usgs.gov/Feature/1031,https://www.wikipedia.org/wiki/Carrillo_(crater)
1032,Carrington,,27.77,62.04,43.97,"Crater, craters",http://planetarynames.wr.usgs.gov/Feature/1032,https://www.wikipedia.org/wiki/Carrington_(crater)
1035,Cartan,,15.62,59.29,4.24,"Crater, craters",http://planetarynames.wr.usgs.gov/Feature/1035,https://www.wikipedia.org/wiki/Cartan_(crater)
1038,Carver,,62.45,127.6,-43.46,"Crater, craters",http://planetarynames.wr.usgs.gov/Feature/1038,https://www.wikipedia.org/wiki/Carver_(crater)
1040,Casatus,,102.85,-30.75,-72.7,"Crater, craters",http://planetarynames.wr.usgs.gov/Feature/1040,https://www.wikipedia.org/wiki/Casatus_(crater)
1044,Cassegrain,,56.66,113.3,-51.95,"Crater, craters",http://planetarynames.wr.usgs.gov/Feature/1044,https://www.wikipedia.org/wiki/Cassegrain_(crater)
1045,Cassini,,56.88,4.64,40.25,"Crater, craters",http://planetarynames.wr.usgs.gov/Feature/1045,https://www.wikipedia.org/wiki/Cassini_(crater)
1053,Catalán,,26.77,-87.37,-45.7,"Crater, craters",http://planetarynames.wr.usgs.gov/Feature/1053,https://www.wikipedia.org/wiki/Catalán_(crater)
1076,Catharina,,98.77,23.55,-17.98,"Crater, craters",http://planetarynames.wr.usgs.gov/Feature/1076,https://www.wikipedia.org/wiki/Catharina_(crater)
1081,Cauchy,,11.8,38.63,9.56,"Crater, craters",http://planetarynames.wr.usgs.gov/Feature/1081,https://www.wikipedia.org/wiki/Cauchy_(crater)
1083,Cavalerius,,59.35,-66.93,5.1,"Crater, craters",http://planetarynames.wr.usgs.gov/Feature/1083,https://www.wikipedia.org/wiki/Cavalerius_(crater)
1086,Cavendish,,52.64,-53.78,-24.63,"Crater, craters",http://planetarynames.wr.usgs.gov/Feature/1086,https://www.wikipedia.org/wiki/Cavwww.ish_(crater)
1087,Caventou,,2.8,-29.38,29.74,"Crater, craters",http://planetarynames.wr.usgs.gov/Feature/1087,https://www.wikipedia.org/wiki/Cavwww.ou_(crater)
1093,Cayley,,14.2,15.09,3.94,"Crater, craters",http://planetarynames.wr.usgs.gov/Feature/1093,https://www.wikipedia.org/wiki/Cayley_(crater)
6800,[Cellini],,0,83,-7.8,"Crater, craters",http://planetarynames.wr.usgs.gov/Feature/6800,NO
1098,Celsius,,38.96,20.05,-34.1,"Crater, craters",http://planetarynames.wr.usgs.gov/Feature/1098,https://www.wikipedia.org/wiki/Celsius_(crater)
1099,Censorinus,,4.1,32.69,-0.42,"Crater, craters",http://planetarynames.wr.usgs.gov/Feature/1099,https://www.wikipedia.org/wiki/Cwww.orinus_(crater)
1102,Cepheus,,39.43,45.78,40.68,"Crater, craters",http://planetarynames.wr.usgs.gov/Feature/1102,https://www.wikipedia.org/wiki/Cepheus_(crater)
6802,[Cervantes],,0,99.2,-3.4,"Crater, craters",http://planetarynames.wr.usgs.gov/Feature/6802,NO
1117,Chacornac,,50.44,31.67,29.88,"Crater, craters",http://planetarynames.wr.usgs.gov/Feature/1117,https://www.wikipedia.org/wiki/Chacornac_(crater)
1118,Chadwick,,29.74,-101.34,-52.85,"Crater, craters",http://planetarynames.wr.usgs.gov/Feature/1118,https://www.wikipedia.org/wiki/Chadwick_(crater)
1120,Chaffee,,51.75,-154.63,-39.06,"Crater, craters",http://planetarynames.wr.usgs.gov/Feature/1120,https://www.wikipedia.org/wiki/Chaffee_(crater)
1126,Challis,,53.21,9.09,79.58,"Crater, craters",http://planetarynames.wr.usgs.gov/Feature/1126,https://www.wikipedia.org/wiki/Challis_(crater)
1127,Chalonge,,25.08,-116.35,-20.44,"Crater, craters",http://planetarynames.wr.usgs.gov/Feature/1127,https://www.wikipedia.org/wiki/Chalonge_(crater)
1129,Chamberlin,,60.41,96.04,-58.83,"Crater, craters",http://planetarynames.wr.usgs.gov/Feature/1129,https://www.wikipedia.org/wiki/Chamberlin_(crater)
1131,Champollion,,48.97,175.03,37.39,"Crater, craters",http://planetarynames.wr.usgs.gov/Feature/1131,https://www.wikipedia.org/wiki/Champollion_(crater)
1132,Chandler,,88.6,171.76,43.65,"Crater, craters",http://planetarynames.wr.usgs.gov/Feature/1132,https://www.wikipedia.org/wiki/Chandler_(crater)
1133,Chang Heng,,42.65,112.21,18.9,"Crater, craters",http://planetarynames.wr.usgs.gov/Feature/1133,https://www.wikipedia.org/wiki/Chang Hwww._(crater)
1135,Chang-Ngo,,2.34,-2.16,-12.69,"Crater, craters",http://planetarynames.wr.usgs.gov/Feature/1135,https://www.wikipedia.org/wiki/Chang-Ngo_(crater)
1138,Chant,,33.6,-109.46,-40.14,"Crater, craters",http://planetarynames.wr.usgs.gov/Feature/1138,https://www.wikipedia.org/wiki/Chant_(crater)
1143,Chaplygin,,123.39,150.24,-5.76,"Crater, craters",http://planetarynames.wr.usgs.gov/Feature/1143,https://www.wikipedia.org/wiki/Chaplygin_(crater)
1144,Chapman,,76.83,-100.47,50.09,"Crater, craters",http://planetarynames.wr.usgs.gov/Feature/1144,https://www.wikipedia.org/wiki/Chapman_(crater)
1145,Chappe,,55.79,-91.24,-61.29,"Crater, craters",http://planetarynames.wr.usgs.gov/Feature/1145,https://www.wikipedia.org/wiki/Chappe_(crater)
1146,Chappell,,73.92,-176.77,54.53,"Crater, craters",http://planetarynames.wr.usgs.gov/Feature/1146,https://www.wikipedia.org/wiki/Chappell_(crater)
1151,Charles,,1.34,-26.37,29.9,"Crater, craters",http://planetarynames.wr.usgs.gov/Feature/1151,https://www.wikipedia.org/wiki/Charles_(crater)
1153,Charlier,,109.88,-131.69,36.22,"Crater, craters",http://planetarynames.wr.usgs.gov/Feature/1153,https://www.wikipedia.org/wiki/Charlier_(crater)
1163,Chaucer,,45.48,-140.71,3.39,"Crater, craters",http://planetarynames.wr.usgs.gov/Feature/1163,https://www.wikipedia.org/wiki/Chaucer_(crater)
1165,Chauvenet,,77.67,137.2,-11.64,"Crater, craters",http://planetarynames.wr.usgs.gov/Feature/1165,https://www.wikipedia.org/wiki/Chauvwww.t_(crater)
14139,Chawla,,14.25,-147.49,-42.48,"Crater, craters",http://planetarynames.wr.usgs.gov/Feature/14139,https://www.wikipedia.org/wiki/Chawla_(crater)
1167,Chebyshev,,179.05,-132.88,-34.01,"Crater, craters",http://planetarynames.wr.usgs.gov/Feature/1167,https://www.wikipedia.org/wiki/Chebyshev_(crater)
6804,[Chekov],,0,82,-6.6,"Crater, craters",http://planetarynames.wr.usgs.gov/Feature/6804,NO
6805,[Chenier],,0,132.4,-17.7,"Crater, craters",http://planetarynames.wr.usgs.gov/Feature/6805,NO
1173,Chernyshev,,59.31,174.41,47.01,"Crater, craters",http://planetarynames.wr.usgs.gov/Feature/1173,https://www.wikipedia.org/wiki/Chernyshev_(crater)
950,C. Herschel,,13.7,-31.29,34.48,"Crater, craters",http://planetarynames.wr.usgs.gov/Feature/950,https://www.wikipedia.org/wiki/C. Herschel_(crater)
1176,Chevallier,,51.83,51.57,45.01,"Crater, craters",http://planetarynames.wr.usgs.gov/Feature/1176,https://www.wikipedia.org/wiki/Chevallier_(crater)
1184,Ching-Te,,3.7,29.97,20.02,"Crater, craters",http://planetarynames.wr.usgs.gov/Feature/1184,https://www.wikipedia.org/wiki/Ching-Te_(crater)
1190,Chladni,,13.07,1.12,3.99,"Crater, craters",http://planetarynames.wr.usgs.gov/Feature/1190,https://www.wikipedia.org/wiki/Chladni_(crater)
1206,Chrétien,,98.63,162.99,-46.11,"Crater, craters",http://planetarynames.wr.usgs.gov/Feature/1206,https://www.wikipedia.org/wiki/Chrétiwww.(crater)
1214,Cichus,,39.18,-21.18,-33.29,"Crater, craters",http://planetarynames.wr.usgs.gov/Feature/1214,https://www.wikipedia.org/wiki/Cichus_(crater)
1226,Clairaut,,76.89,13.86,-47.84,"Crater, craters",http://planetarynames.wr.usgs.gov/Feature/1226,https://www.wikipedia.org/wiki/Clairaut_(crater)
1232,Clark,,52.11,119.35,-38.67,"Crater, craters",http://planetarynames.wr.usgs.gov/Feature/1232,https://www.wikipedia.org/wiki/Clark_(crater)
1235,Clausius,,24.2,-43.93,-36.9,"Crater, craters",http://planetarynames.wr.usgs.gov/Feature/1235,https://www.wikipedia.org/wiki/Clausius_(crater)
1236,Clavius,,230.77,-14.73,-58.62,"Crater, craters",http://planetarynames.wr.usgs.gov/Feature/1236,https://www.wikipedia.org/wiki/Clavius_(crater)
1239,Cleomedes,,130.77,55.5,27.6,"Crater, craters",http://planetarynames.wr.usgs.gov/Feature/1239,https://www.wikipedia.org/wiki/Cleomedes_(crater)
1241,Cleostratus,,63.23,-77.4,60.32,"Crater, craters",http://planetarynames.wr.usgs.gov/Feature/1241,https://www.wikipedia.org/wiki/Cleostratus_(crater)
1242,Clerke,,6.66,29.8,21.68,"Crater, craters",http://planetarynames.wr.usgs.gov/Feature/1242,https://www.wikipedia.org/wiki/Clerke_(crater)
951,C. Mayer,,37.54,17.31,63.26,"Crater, craters",http://planetarynames.wr.usgs.gov/Feature/951,https://www.wikipedia.org/wiki/C. Mayer_(crater)
1256,Coblentz,,32.66,126.65,-38.09,"Crater, craters",http://planetarynames.wr.usgs.gov/Feature/1256,https://www.wikipedia.org/wiki/Coblwww.z_(crater)
1261,Cockcroft,,92.16,-162.91,31.09,"Crater, craters",http://planetarynames.wr.usgs.gov/Feature/1261,https://www.wikipedia.org/wiki/Cockcroft_(crater)
1271,Collins,,2.58,23.71,1.3,"Crater, craters",http://planetarynames.wr.usgs.gov/Feature/1271,https://www.wikipedia.org/wiki/Collins_(crater)
1273,Colombo,,79.02,46.02,-15.26,"Crater, craters",http://planetarynames.wr.usgs.gov/Feature/1273,https://www.wikipedia.org/wiki/Colombo_(crater)
1278,Compton,,164.63,104.05,55.86,"Crater, craters",http://planetarynames.wr.usgs.gov/Feature/1278,https://www.wikipedia.org/wiki/Compton_(crater)
1279,Comrie,,59.25,-113.17,23.39,"Crater, craters",http://planetarynames.wr.usgs.gov/Feature/1279,https://www.wikipedia.org/wiki/Comrie_(crater)
1280,Comstock,,73.23,-122.05,21.59,"Crater, craters",http://planetarynames.wr.usgs.gov/Feature/1280,https://www.wikipedia.org/wiki/Comstock_(crater)
1285,Condon,,34.85,60.36,1.87,"Crater, craters",http://planetarynames.wr.usgs.gov/Feature/1285,https://www.wikipedia.org/wiki/Condon_(crater)
1286,Condorcet,,74.85,69.58,12.1,"Crater, craters",http://planetarynames.wr.usgs.gov/Feature/1286,https://www.wikipedia.org/wiki/Condorcet_(crater)
1288,Congreve,,57.61,-167.84,-0.28,"Crater, craters",http://planetarynames.wr.usgs.gov/Feature/1288,https://www.wikipedia.org/wiki/Congreve_(crater)
1289,Conon,,20.96,1.95,21.66,"Crater, craters",http://planetarynames.wr.usgs.gov/Feature/1289,https://www.wikipedia.org/wiki/Conon_(crater)
1292,Cook,,45.16,48.81,-17.5,"Crater, craters",http://planetarynames.wr.usgs.gov/Feature/1292,https://www.wikipedia.org/wiki/Cook_(crater)
1294,Cooper,,51.87,175.92,52.68,"Crater, craters",http://planetarynames.wr.usgs.gov/Feature/1294,https://www.wikipedia.org/wiki/Cooper_(crater)
1296,Copernicus,,96.07,-20.08,9.62,"Crater, craters",http://planetarynames.wr.usgs.gov/Feature/1296,https://www.wikipedia.org/wiki/Copernicus_(crater)
1308,Cori,,67.22,-152.91,-50.48,"Crater, craters",http://planetarynames.wr.usgs.gov/Feature/1308,https://www.wikipedia.org/wiki/Cori_(crater)
1313,Coriolis,,78.56,171.8,0.56,"Crater, craters",http://planetarynames.wr.usgs.gov/Feature/1313,https://www.wikipedia.org/wiki/Coriolis_(crater)
6811,[Corneille],,0,134.8,12.3,"Crater, craters",http://planetarynames.wr.usgs.gov/Feature/6811,NO
1322,Couder,,18.56,-92.58,-4.9,"Crater, craters",http://planetarynames.wr.usgs.gov/Feature/1322,https://www.wikipedia.org/wiki/Couder_(crater)
1323,Coulomb,,89.72,-115,54.46,"Crater, craters",http://planetarynames.wr.usgs.gov/Feature/1323,https://www.wikipedia.org/wiki/Coulomb_(crater)
1325,Courtney,,1.24,-30.81,25.14,"Crater, craters",http://planetarynames.wr.usgs.gov/Feature/1325,https://www.wikipedia.org/wiki/Courtney_(crater)
1329,Cremona,,85.12,-90.86,67.24,"Crater, craters",http://planetarynames.wr.usgs.gov/Feature/1329,https://www.wikipedia.org/wiki/Cremona_(crater)
1333,Crile,,9.3,45.98,14.21,"Crater, craters",http://planetarynames.wr.usgs.gov/Feature/1333,https://www.wikipedia.org/wiki/Crile_(crater)
1336,Crocco,,67.5,150.51,-46.98,"Crater, craters",http://planetarynames.wr.usgs.gov/Feature/1336,https://www.wikipedia.org/wiki/Crocco_(crater)
1337,Crommelin,,93.48,-147.95,-67.46,"Crater, craters",http://planetarynames.wr.usgs.gov/Feature/1337,https://www.wikipedia.org/wiki/Crommelin_(crater)
1339,Crookes,,48.25,-165.1,-10.4,"Crater, craters",http://planetarynames.wr.usgs.gov/Feature/1339,https://www.wikipedia.org/wiki/Crookes_(crater)
1340,Crozier,,22.51,50.72,-13.56,"Crater, craters",http://planetarynames.wr.usgs.gov/Feature/1340,https://www.wikipedia.org/wiki/Crozier_(crater)
1343,Crüger,,45.94,-66.96,-16.68,"Crater, craters",http://planetarynames.wr.usgs.gov/Feature/1343,https://www.wikipedia.org/wiki/Crüger_(crater)
1344,Ctesibius,,32.1,118.75,0.83,"Crater, craters",http://planetarynames.wr.usgs.gov/Feature/1344,https://www.wikipedia.org/wiki/Ctesibius_(crater)
1350,Curie,,138.87,92.28,-23.05,"Crater, craters",http://planetarynames.wr.usgs.gov/Feature/1350,https://www.wikipedia.org/wiki/Curie_(crater)
1352,Curtis,,2.88,56.79,14.57,"Crater, craters",http://planetarynames.wr.usgs.gov/Feature/1352,https://www.wikipedia.org/wiki/Curtis_(crater)
1353,Curtius,,99.29,4.4,-67.08,"Crater, craters",http://planetarynames.wr.usgs.gov/Feature/1353,https://www.wikipedia.org/wiki/Curtius_(crater)
1354,Cusanus,,60.87,69.4,71.82,"Crater, craters",http://planetarynames.wr.usgs.gov/Feature/1354,https://www.wikipedia.org/wiki/Cusanus_(crater)
1356,Cuvier,,77.3,9.69,-50.29,"Crater, craters",http://planetarynames.wr.usgs.gov/Feature/1356,https://www.wikipedia.org/wiki/Cuvier_(crater)
1371,Cyrano,,79.58,157.37,-20.37,"Crater, craters",http://planetarynames.wr.usgs.gov/Feature/1371,https://www.wikipedia.org/wiki/Cyrano_(crater)
1372,Cyrillus,,98.09,24.07,-13.29,"Crater, craters",http://planetarynames.wr.usgs.gov/Feature/1372,https://www.wikipedia.org/wiki/Cyrillus_(crater)
1373,Cysatus,,47.77,-6.34,-66.21,"Crater, craters",http://planetarynames.wr.usgs.gov/Feature/1373,https://www.wikipedia.org/wiki/Cysatus_(crater)
1381,Daedalus,,93.61,179.4,-5.83,"Crater, craters",http://planetarynames.wr.usgs.gov/Feature/1381,https://www.wikipedia.org/wiki/Daedalus_(crater)
1385,Dag,,0.36,5.26,18.71,"Crater, craters",http://planetarynames.wr.usgs.gov/Feature/1385,https://www.wikipedia.org/wiki/Dag_(crater)
1388,Daguerre,,45.79,33.61,-11.91,"Crater, craters",http://planetarynames.wr.usgs.gov/Feature/1388,https://www.wikipedia.org/wiki/Daguerre_(crater)
1389,Dale,,23.41,82.93,-9.56,"Crater, craters",http://planetarynames.wr.usgs.gov/Feature/1389,https://www.wikipedia.org/wiki/Dale_(crater)
1694,d'Alembert,,233.55,164.89,51.07,"Crater, craters",http://planetarynames.wr.usgs.gov/Feature/1694,https://www.wikipedia.org/wiki/d'Alembert_(crater)
1392,Dalton,,60.69,-84.45,17.07,"Crater, craters",http://planetarynames.wr.usgs.gov/Feature/1392,https://www.wikipedia.org/wiki/Dalton_(crater)
1393,Daly,,14.96,59.5,5.74,"Crater, craters",http://planetarynames.wr.usgs.gov/Feature/1393,https://www.wikipedia.org/wiki/Daly_(crater)
1396,Damoiseau,,36.66,-61.25,-4.85,"Crater, craters",http://planetarynames.wr.usgs.gov/Feature/1396,https://www.wikipedia.org/wiki/Damoiseau_(crater)
1400,Daniell,,28.2,31.16,35.42,"Crater, craters",http://planetarynames.wr.usgs.gov/Feature/1400,https://www.wikipedia.org/wiki/Daniell_(crater)
1402,Danjon,,69.3,123.9,-11.42,"Crater, craters",http://planetarynames.wr.usgs.gov/Feature/1402,https://www.wikipedia.org/wiki/Danjon_(crater)
1405,Dante,,53.83,180,25.36,"Crater, craters",http://planetarynames.wr.usgs.gov/Feature/1405,https://www.wikipedia.org/wiki/Dante_(crater)
6813,[Dario],,0,90.7,-11.3,"Crater, craters",http://planetarynames.wr.usgs.gov/Feature/6813,NO
1415,Darney,,14.81,-23.57,-14.61,"Crater, craters",http://planetarynames.wr.usgs.gov/Feature/1415,https://www.wikipedia.org/wiki/Darney_(crater)
1695,D'Arrest,,29.67,14.6,2.26,"Crater, craters",http://planetarynames.wr.usgs.gov/Feature/1695,https://www.wikipedia.org/wiki/D'Arrest_(crater)
1697,D'Arsonval,,30.36,124.59,-10.31,"Crater, craters",http://planetarynames.wr.usgs.gov/Feature/1697,https://www.wikipedia.org/wiki/D'Arsonval_(crater)
1417,Darwin,,122.18,-69.21,-19.93,"Crater, craters",http://planetarynames.wr.usgs.gov/Feature/1417,https://www.wikipedia.org/wiki/Darwin_(crater)
1421,Das,,35.95,-137.05,-26.49,"Crater, craters",http://planetarynames.wr.usgs.gov/Feature/1421,https://www.wikipedia.org/wiki/Das_(crater)
1424,Daubrée,,14.67,14.75,15.73,"Crater, craters",http://planetarynames.wr.usgs.gov/Feature/1424,https://www.wikipedia.org/wiki/Daubrée_(crater)
1376,da Vinci,,37.46,44.95,9.1,"Crater, craters",http://planetarynames.wr.usgs.gov/Feature/1376,https://www.wikipedia.org/wiki/da Vinci_(crater)
1428,Davisson,,92.46,-174.97,-37.93,"Crater, craters",http://planetarynames.wr.usgs.gov/Feature/1428,https://www.wikipedia.org/wiki/Davisson_(crater)
1429,Davy,,33.94,-8.15,-11.85,"Crater, craters",http://planetarynames.wr.usgs.gov/Feature/1429,https://www.wikipedia.org/wiki/Davy_(crater)
1430,Dawes,,17.6,26.34,17.21,"Crater, craters",http://planetarynames.wr.usgs.gov/Feature/1430,https://www.wikipedia.org/wiki/Dawes_(crater)
1432,Dawson,,44.32,-135.05,-66.99,"Crater, craters",http://planetarynames.wr.usgs.gov/Feature/1432,https://www.wikipedia.org/wiki/Dawson_(crater)
14138,D. Brown,,16.12,-147.16,-41.65,"Crater, craters",http://planetarynames.wr.usgs.gov/Feature/14138,https://www.wikipedia.org/wiki/D. Brown_(crater)
1452,Debes,,31.92,51.62,29.47,"Crater, craters",http://planetarynames.wr.usgs.gov/Feature/1452,https://www.wikipedia.org/wiki/Debes_(crater)
1454,Debus,,19.77,99.68,-10.68,"Crater, craters",http://planetarynames.wr.usgs.gov/Feature/1454,https://www.wikipedia.org/wiki/Debus_(crater)
1455,Debye,,127.03,-176.03,49.43,"Crater, craters",http://planetarynames.wr.usgs.gov/Feature/1455,https://www.wikipedia.org/wiki/Debye_(crater)
1456,Dechen,,12.04,-68.18,46.12,"Crater, craters",http://planetarynames.wr.usgs.gov/Feature/1456,https://www.wikipedia.org/wiki/Dechwww.(crater)
6814,[Defoe],,0,80.5,-6,"Crater, craters",http://planetarynames.wr.usgs.gov/Feature/6814,NO
1437,De Forest,,56.26,-163.33,-76.94,"Crater, craters",http://planetarynames.wr.usgs.gov/Feature/1437,https://www.wikipedia.org/wiki/De Forest_(crater)
1438,de Gasparis,,30.9,-50.83,-25.83,"Crater, craters",http://planetarynames.wr.usgs.gov/Feature/1438,https://www.wikipedia.org/wiki/de Gasparis_(crater)
1439,de Gerlache,,32.71,-88.34,-88.48,"Crater, craters",http://planetarynames.wr.usgs.gov/Feature/1439,https://www.wikipedia.org/wiki/de Gerlache_(crater)
1467,Delambre,,51.49,17.39,-1.94,"Crater, craters",http://planetarynames.wr.usgs.gov/Feature/1467,https://www.wikipedia.org/wiki/Delambre_(crater)
1440,De La Rue,,135.22,52.84,59.02,"Crater, craters",http://planetarynames.wr.usgs.gov/Feature/1440,https://www.wikipedia.org/wiki/De La Rue_(crater)
1468,Delaunay,,44.63,2.62,-22.26,"Crater, craters",http://planetarynames.wr.usgs.gov/Feature/1468,https://www.wikipedia.org/wiki/Delaunay_(crater)
1470,Delia,,1.57,-6.13,-10.91,"Crater, craters",http://planetarynames.wr.usgs.gov/Feature/1470,https://www.wikipedia.org/wiki/Delia_(crater)
1472,Delisle,,24.83,-34.68,29.98,"Crater, craters",http://planetarynames.wr.usgs.gov/Feature/1472,https://www.wikipedia.org/wiki/Delisle_(crater)
1473,Dellinger,,82.04,140.7,-6.87,"Crater, craters",http://planetarynames.wr.usgs.gov/Feature/1473,https://www.wikipedia.org/wiki/Dellinger_(crater)
1474,Delmotte,,32.16,60.2,27.16,"Crater, craters",http://planetarynames.wr.usgs.gov/Feature/1474,https://www.wikipedia.org/wiki/Delmotte_(crater)
1477,Delporte,,42.5,121.55,-15.89,"Crater, craters",http://planetarynames.wr.usgs.gov/Feature/1477,https://www.wikipedia.org/wiki/Delporte_(crater)
1480,Deluc,,45.69,-2.98,-55.02,"Crater, craters",http://planetarynames.wr.usgs.gov/Feature/1480,https://www.wikipedia.org/wiki/Deluc_(crater)
1481,Dembowski,,26.11,7.27,2.88,"Crater, craters",http://planetarynames.wr.usgs.gov/Feature/1481,https://www.wikipedia.org/wiki/Dembowski_(crater)
1483,Democritus,,37.78,34.99,62.31,"Crater, craters",http://planetarynames.wr.usgs.gov/Feature/1483,https://www.wikipedia.org/wiki/Democritus_(crater)
1484,Demonax,,121.93,59.36,-78.09,"Crater, craters",http://planetarynames.wr.usgs.gov/Feature/1484,https://www.wikipedia.org/wiki/Demonax_(crater)
1442,De Moraes,,54.41,143,49.38,"Crater, craters",http://planetarynames.wr.usgs.gov/Feature/1442,https://www.wikipedia.org/wiki/De Moraes_(crater)
1443,De Morgan,,9.68,14.89,3.31,"Crater, craters",http://planetarynames.wr.usgs.gov/Feature/1443,https://www.wikipedia.org/wiki/De Morgan_(crater)
1489,Denning,,44.18,142.76,-16.26,"Crater, craters",http://planetarynames.wr.usgs.gov/Feature/1489,https://www.wikipedia.org/wiki/Dwww.ing_(crater)
1444,De Roy,,43.51,-98.99,-55.24,"Crater, craters",http://planetarynames.wr.usgs.gov/Feature/1444,https://www.wikipedia.org/wiki/De Roy_(crater)
1497,Desargues,,84.85,-73.42,70.25,"Crater, craters",http://planetarynames.wr.usgs.gov/Feature/1497,https://www.wikipedia.org/wiki/Desargues_(crater)
1498,Descartes,,47.73,15.67,-11.74,"Crater, craters",http://planetarynames.wr.usgs.gov/Feature/1498,https://www.wikipedia.org/wiki/Descartes_(crater)
1501,Deseilligny,,6.01,20.59,21.13,"Crater, craters",http://planetarynames.wr.usgs.gov/Feature/1501,https://www.wikipedia.org/wiki/Deseilligny_(crater)
1445,De Sitter,,63.79,38.57,79.81,"Crater, craters",http://planetarynames.wr.usgs.gov/Feature/1445,https://www.wikipedia.org/wiki/De Sitter_(crater)
1502,Deslandres,,227.02,-5.57,-32.55,"Crater, craters",http://planetarynames.wr.usgs.gov/Feature/1502,https://www.wikipedia.org/wiki/Deslandres_(crater)
1510,Deutsch,,73.33,110.91,24.35,"Crater, craters",http://planetarynames.wr.usgs.gov/Feature/1510,https://www.wikipedia.org/wiki/Deutsch_(crater)
1448,De Vico,,22.13,-60.32,-19.71,"Crater, craters",http://planetarynames.wr.usgs.gov/Feature/1448,https://www.wikipedia.org/wiki/De Vico_(crater)
1449,De Vries,,57.51,-176.78,-19.68,"Crater, craters",http://planetarynames.wr.usgs.gov/Feature/1449,https://www.wikipedia.org/wiki/De Vries_(crater)
1515,Dewar,,46.31,165.62,-2.61,"Crater, craters",http://planetarynames.wr.usgs.gov/Feature/1515,https://www.wikipedia.org/wiki/Dewar_(crater)
1524,Diana,,1.55,35.65,14.29,"Crater, craters",http://planetarynames.wr.usgs.gov/Feature/1524,https://www.wikipedia.org/wiki/Diana_(crater)
1529,Diderot,,20,121.54,-20.42,"Crater, craters",http://planetarynames.wr.usgs.gov/Feature/1529,https://www.wikipedia.org/wiki/Diderot_(crater)
1542,Dionysius,,17.25,17.29,2.77,"Crater, craters",http://planetarynames.wr.usgs.gov/Feature/1542,https://www.wikipedia.org/wiki/Dionysius_(crater)
1543,Diophantus,,17.57,-34.3,27.62,"Crater, craters",http://planetarynames.wr.usgs.gov/Feature/1543,https://www.wikipedia.org/wiki/Diophantus_(crater)
1545,Dirichlet,,47.24,-152.05,10.58,"Crater, craters",http://planetarynames.wr.usgs.gov/Feature/1545,https://www.wikipedia.org/wiki/Dirichlet_(crater)
1559,Dobrovol'skiy,,38.4,129.68,-12.83,"Crater, craters",http://planetarynames.wr.usgs.gov/Feature/1559,https://www.wikipedia.org/wiki/Dobrovol'skiy_(crater)
1562,Doerfel,,68.63,-108.53,-68.97,"Crater, craters",http://planetarynames.wr.usgs.gov/Feature/1562,https://www.wikipedia.org/wiki/Doerfel_(crater)
1566,Dollond,,11.04,14.41,-10.48,"Crater, craters",http://planetarynames.wr.usgs.gov/Feature/1566,https://www.wikipedia.org/wiki/Dollond_(crater)
1574,Donati,,35.84,5.1,-20.69,"Crater, craters",http://planetarynames.wr.usgs.gov/Feature/1574,https://www.wikipedia.org/wiki/Donati_(crater)
1575,Donna,,1.84,38.3,7.22,"Crater, craters",http://planetarynames.wr.usgs.gov/Feature/1575,https://www.wikipedia.org/wiki/Donna_(crater)
1577,Donner,,55.05,97.99,-31.35,"Crater, craters",http://planetarynames.wr.usgs.gov/Feature/1577,https://www.wikipedia.org/wiki/Donner_(crater)
1579,Doppelmayer,,65.08,-41.51,-28.48,"Crater, craters",http://planetarynames.wr.usgs.gov/Feature/1579,https://www.wikipedia.org/wiki/Doppelmayer_(crater)
1580,Doppler,,101.79,-159.84,-12.58,"Crater, craters",http://planetarynames.wr.usgs.gov/Feature/1580,https://www.wikipedia.org/wiki/Doppler_(crater)
1630,Douglass,,50.95,-122.72,35.5,"Crater, craters",http://planetarynames.wr.usgs.gov/Feature/1630,https://www.wikipedia.org/wiki/Douglass_(crater)
1632,Dove,,30.36,31.42,-46.83,"Crater, craters",http://planetarynames.wr.usgs.gov/Feature/1632,https://www.wikipedia.org/wiki/Dove_(crater)
6818,[Doyle],,0,84.5,2,"Crater, craters",http://planetarynames.wr.usgs.gov/Feature/6818,NO
1635,Draper,,8.28,-21.75,17.56,"Crater, craters",http://planetarynames.wr.usgs.gov/Feature/1635,https://www.wikipedia.org/wiki/Draper_(crater)
1637,Drebbel,,30.23,-49.12,-40.93,"Crater, craters",http://planetarynames.wr.usgs.gov/Feature/1637,https://www.wikipedia.org/wiki/Drebbel_(crater)
1638,Dreyer,,63.84,97.09,10.24,"Crater, craters",http://planetarynames.wr.usgs.gov/Feature/1638,https://www.wikipedia.org/wiki/Dreyer_(crater)
1642,Drude,,27.13,-91.89,-38.56,"Crater, craters",http://planetarynames.wr.usgs.gov/Feature/1642,https://www.wikipedia.org/wiki/Drude_(crater)
1644,Dryden,,54.45,-156.15,-33.21,"Crater, craters",http://planetarynames.wr.usgs.gov/Feature/1644,https://www.wikipedia.org/wiki/Drydwww.(crater)
1645,Drygalski,,162.49,-87.18,-79.57,"Crater, craters",http://planetarynames.wr.usgs.gov/Feature/1645,https://www.wikipedia.org/wiki/Drygalski_(crater)
1655,Dubyago,,48.12,69.95,4.38,"Crater, craters",http://planetarynames.wr.usgs.gov/Feature/1655,https://www.wikipedia.org/wiki/Dubyago_(crater)
1657,Dufay,,36.11,169.54,5.57,"Crater, craters",http://planetarynames.wr.usgs.gov/Feature/1657,https://www.wikipedia.org/wiki/Dufay_(crater)
1658,Dugan,,49.65,103.11,64.12,"Crater, craters",http://planetarynames.wr.usgs.gov/Feature/1658,https://www.wikipedia.org/wiki/Dugan_(crater)
6820,[Dumas],,0,81.7,-5.3,"Crater, craters",http://planetarynames.wr.usgs.gov/Feature/6820,NO
1670,Dunér,,65.07,179.46,44.68,"Crater, craters",http://planetarynames.wr.usgs.gov/Feature/1670,https://www.wikipedia.org/wiki/Dunér_(crater)
1668,Dunthorne,,15.12,-31.71,-30.12,"Crater, craters",http://planetarynames.wr.usgs.gov/Feature/1668,https://www.wikipedia.org/wiki/Dunthorne_(crater)
1685,Dyson,,63.14,-121.71,60.87,"Crater, craters",http://planetarynames.wr.usgs.gov/Feature/1685,https://www.wikipedia.org/wiki/Dyson_(crater)
1689,Dziewulski,,68.9,99.02,20.99,"Crater, craters",http://planetarynames.wr.usgs.gov/Feature/1689,https://www.wikipedia.org/wiki/Dziewulski_(crater)
1715,Eckert,,2.62,58.38,17.28,"Crater, craters",http://planetarynames.wr.usgs.gov/Feature/1715,https://www.wikipedia.org/wiki/Eckert_(crater)
1719,Eddington,,120.13,-72.02,21.5,"Crater, craters",http://planetarynames.wr.usgs.gov/Feature/1719,https://www.wikipedia.org/wiki/Eddington_(crater)
1723,Edison,,62.72,99.27,24.88,"Crater, craters",http://planetarynames.wr.usgs.gov/Feature/1723,https://www.wikipedia.org/wiki/Edison_(crater)
1724,Edith,,6.92,102.33,-25.77,"Crater, craters",http://planetarynames.wr.usgs.gov/Feature/1724,https://www.wikipedia.org/wiki/Edith_(crater)
1728,Egede,,34.18,10.64,48.72,"Crater, craters",http://planetarynames.wr.usgs.gov/Feature/1728,https://www.wikipedia.org/wiki/Egede_(crater)
1734,Ehrlich,,33.58,-172.27,40.82,"Crater, craters",http://planetarynames.wr.usgs.gov/Feature/1734,https://www.wikipedia.org/wiki/Ehrlich_(crater)
1735,Eichstadt,,49.57,-78.42,-22.63,"Crater, craters",http://planetarynames.wr.usgs.gov/Feature/1735,https://www.wikipedia.org/wiki/Eichstadt_(crater)
1737,Eijkman,,56.36,-142.51,-63.21,"Crater, craters",http://planetarynames.wr.usgs.gov/Feature/1737,https://www.wikipedia.org/wiki/Eijkman_(crater)
1742,Eimmart,,44.99,64.8,23.97,"Crater, craters",http://planetarynames.wr.usgs.gov/Feature/1742,https://www.wikipedia.org/wiki/Eimmart_(crater)
1745,Einstein,,181.47,-88.65,16.6,"Crater, craters",http://planetarynames.wr.usgs.gov/Feature/1745,https://www.wikipedia.org/wiki/Einstein_(crater)
1746,Einthoven,,73.94,110.06,-5.06,"Crater, craters",http://planetarynames.wr.usgs.gov/Feature/1746,https://www.wikipedia.org/wiki/Einthovwww.(crater)
1763,Elger,,21.51,-29.81,-35.4,"Crater, craters",http://planetarynames.wr.usgs.gov/Feature/1763,https://www.wikipedia.org/wiki/Elger_(crater)
6822,[El Greco],,0,34.7,14,"Crater, craters",http://planetarynames.wr.usgs.gov/Feature/6822,NO
1769,Ellerman,,46.21,-120.39,-25.44,"Crater, craters",http://planetarynames.wr.usgs.gov/Feature/1769,https://www.wikipedia.org/wiki/Ellerman_(crater)
1770,Ellison,,36.99,-108.05,54.93,"Crater, craters",http://planetarynames.wr.usgs.gov/Feature/1770,https://www.wikipedia.org/wiki/Ellison_(crater)
1774,Elmer,,16.86,84.18,-10.23,"Crater, craters",http://planetarynames.wr.usgs.gov/Feature/1774,https://www.wikipedia.org/wiki/Elmer_(crater)
1777,Elvey,,80.21,-100.64,9.01,"Crater, craters",http://planetarynames.wr.usgs.gov/Feature/1777,https://www.wikipedia.org/wiki/Elvey_(crater)
1789,Emden,,114.64,-176.51,62.76,"Crater, craters",http://planetarynames.wr.usgs.gov/Feature/1789,https://www.wikipedia.org/wiki/Emdwww.(crater)
1796,Encke,,28.27,-36.68,4.57,"Crater, craters",http://planetarynames.wr.usgs.gov/Feature/1796,https://www.wikipedia.org/wiki/Encke_(crater)
1799,Endymion,,122.1,56.48,53.61,"Crater, craters",http://planetarynames.wr.usgs.gov/Feature/1799,https://www.wikipedia.org/wiki/Endymion_(crater)
1801,Engel'gardt (Engelhardt),,43.51,-159.47,5.39,"Crater, craters",http://planetarynames.wr.usgs.gov/Feature/1801,NO
1893,Eötvös,,101.8,134.43,-35.61,"Crater, craters",http://planetarynames.wr.usgs.gov/Feature/1893,https://www.wikipedia.org/wiki/Eötvös_(crater)
1815,Epigenes,,54.51,-4.62,67.5,"Crater, craters",http://planetarynames.wr.usgs.gov/Feature/1815,https://www.wikipedia.org/wiki/Epigwww.s_(crater)
1817,Epimenides,,22.56,-30.33,-40.92,"Crater, craters",http://planetarynames.wr.usgs.gov/Feature/1817,https://www.wikipedia.org/wiki/Epimwww.des_(crater)
6823,[Eppinger],,0,-25.7,-9.4,"Crater, craters",http://planetarynames.wr.usgs.gov/Feature/6823,NO
1820,Eratosthenes,,58.77,-11.32,14.47,"Crater, craters",http://planetarynames.wr.usgs.gov/Feature/1820,https://www.wikipedia.org/wiki/Eratosthwww.s_(crater)
14525,Erlanger,,10.94,28.62,86.99,"Crater, craters",http://planetarynames.wr.usgs.gov/Feature/14525,https://www.wikipedia.org/wiki/Erlanger_(crater)
1837,Erro,,63.75,98.54,5.68,"Crater, craters",http://planetarynames.wr.usgs.gov/Feature/1837,https://www.wikipedia.org/wiki/Erro_(crater)
1842,Esclangon,,15.29,42.06,21.47,"Crater, craters",http://planetarynames.wr.usgs.gov/Feature/1842,https://www.wikipedia.org/wiki/Esclangon_(crater)
1848,Esnault-Pelterie,,76.79,-141.83,47.41,"Crater, craters",http://planetarynames.wr.usgs.gov/Feature/1848,https://www.wikipedia.org/wiki/Esnault-Pelterie_(crater)
1849,Espin,,70.01,109.34,28.15,"Crater, craters",http://planetarynames.wr.usgs.gov/Feature/1849,https://www.wikipedia.org/wiki/Espin_(crater)
1860,Euclides,,11.8,-29.56,-7.4,"Crater, craters",http://planetarynames.wr.usgs.gov/Feature/1860,https://www.wikipedia.org/wiki/Euclides_(crater)
1861,Euctemon,,62.7,30.57,76.26,"Crater, craters",http://planetarynames.wr.usgs.gov/Feature/1861,https://www.wikipedia.org/wiki/Euctemon_(crater)
1863,Eudoxus,,70.16,16.23,44.27,"Crater, craters",http://planetarynames.wr.usgs.gov/Feature/1863,https://www.wikipedia.org/wiki/Eudoxus_(crater)
1866,Euler,,26.03,-29.18,23.26,"Crater, craters",http://planetarynames.wr.usgs.gov/Feature/1866,https://www.wikipedia.org/wiki/Euler_(crater)
1883,Evans,,69.4,-133.78,-9.63,"Crater, craters",http://planetarynames.wr.usgs.gov/Feature/1883,https://www.wikipedia.org/wiki/Evans_(crater)
1884,Evdokimov,,48.88,-153.04,34.57,"Crater, craters",http://planetarynames.wr.usgs.gov/Feature/1884,https://www.wikipedia.org/wiki/Evdokimov_(crater)
1887,Evershed,,65.28,-159.51,35.3,"Crater, craters",http://planetarynames.wr.usgs.gov/Feature/1887,https://www.wikipedia.org/wiki/Evershed_(crater)
1891,Ewen,,2.6,121.46,7.69,"Crater, craters",http://planetarynames.wr.usgs.gov/Feature/1891,https://www.wikipedia.org/wiki/Ewwww.(crater)
1894,Fabbroni,,10.55,29.27,18.66,"Crater, craters",http://planetarynames.wr.usgs.gov/Feature/1894,https://www.wikipedia.org/wiki/Fabbroni_(crater)
1895,Fabricius,,78.9,41.84,-42.75,"Crater, craters",http://planetarynames.wr.usgs.gov/Feature/1895,https://www.wikipedia.org/wiki/Fabricius_(crater)
1896,Fabry,,179.44,100.68,43.07,"Crater, craters",http://planetarynames.wr.usgs.gov/Feature/1896,https://www.wikipedia.org/wiki/Fabry_(crater)
1898,Fahrenheit,,6.65,61.71,13.12,"Crater, craters",http://planetarynames.wr.usgs.gov/Feature/1898,https://www.wikipedia.org/wiki/Fahrwww.eit_(crater)
1901,Fairouz,,2.87,102.95,-26.07,"Crater, craters",http://planetarynames.wr.usgs.gov/Feature/1901,https://www.wikipedia.org/wiki/Fairouz_(crater)
1911,Faraday,,69.03,8.75,-42.45,"Crater, craters",http://planetarynames.wr.usgs.gov/Feature/1911,https://www.wikipedia.org/wiki/Faraday_(crater)
1919,Faustini,,42.48,84.31,-87.18,"Crater, craters",http://planetarynames.wr.usgs.gov/Feature/1919,https://www.wikipedia.org/wiki/Faustini_(crater)
1920,Fauth,,11.94,-20.14,6.23,"Crater, craters",http://planetarynames.wr.usgs.gov/Feature/1920,https://www.wikipedia.org/wiki/Fauth_(crater)
1922,Faye,,38.02,3.81,-21.39,"Crater, craters",http://planetarynames.wr.usgs.gov/Feature/1922,https://www.wikipedia.org/wiki/Faye_(crater)
1925,Fechner,,59.32,125.03,-58.25,"Crater, craters",http://planetarynames.wr.usgs.gov/Feature/1925,https://www.wikipedia.org/wiki/Fechner_(crater)
1928,Fedorov,,6.08,-37.05,28.23,"Crater, craters",http://planetarynames.wr.usgs.gov/Feature/1928,https://www.wikipedia.org/wiki/Fedorov_(crater)
1934,Felix,,1.45,-25.38,25.09,"Crater, craters",http://planetarynames.wr.usgs.gov/Feature/1934,https://www.wikipedia.org/wiki/Felix_(crater)
2045,Fényi,,43.31,-105.06,-44.94,"Crater, craters",http://planetarynames.wr.usgs.gov/Feature/2045,https://www.wikipedia.org/wiki/Fényi_(crater)
1936,Feoktistov,,22.06,140.5,30.73,"Crater, craters",http://planetarynames.wr.usgs.gov/Feature/1936,https://www.wikipedia.org/wiki/Feoktistov_(crater)
1939,Fermat,,37.77,19.79,-22.71,"Crater, craters",http://planetarynames.wr.usgs.gov/Feature/1939,https://www.wikipedia.org/wiki/Fermat_(crater)
1940,Fermi,,241.41,123.24,-19.61,"Crater, craters",http://planetarynames.wr.usgs.gov/Feature/1940,https://www.wikipedia.org/wiki/Fermi_(crater)
1942,Fernelius,,68.42,4.86,-38.18,"Crater, craters",http://planetarynames.wr.usgs.gov/Feature/1942,https://www.wikipedia.org/wiki/Fernelius_(crater)
1945,Fersman,,148.14,-126.06,17.9,"Crater, craters",http://planetarynames.wr.usgs.gov/Feature/1945,https://www.wikipedia.org/wiki/Fersman_(crater)
1947,Fesenkov,,36.12,135.14,-23.16,"Crater, craters",http://planetarynames.wr.usgs.gov/Feature/1947,https://www.wikipedia.org/wiki/Feswww.ov_(crater)
1952,Feuillée,,8.94,-9.46,27.37,"Crater, craters",http://planetarynames.wr.usgs.gov/Feature/1952,https://www.wikipedia.org/wiki/Feuillée_(crater)
14526,Fibiger,,21.1,37.13,86.14,"Crater, craters",http://planetarynames.wr.usgs.gov/Feature/14526,https://www.wikipedia.org/wiki/Fibiger_(crater)
1958,Finsch,,4.05,21.27,23.58,"Crater, craters",http://planetarynames.wr.usgs.gov/Feature/1958,https://www.wikipedia.org/wiki/Finsch_(crater)
1959,Finsen,,72.98,-177.72,-42.29,"Crater, craters",http://planetarynames.wr.usgs.gov/Feature/1959,https://www.wikipedia.org/wiki/Finswww.(crater)
6827,[Firdausi],,6.11,-34.07,24.68,"Crater, craters",http://planetarynames.wr.usgs.gov/Feature/6827,NO
1963,Firmicus,,56.81,63.43,7.25,"Crater, craters",http://planetarynames.wr.usgs.gov/Feature/1963,https://www.wikipedia.org/wiki/Firmicus_(crater)
1964,Firsov,,51,112.7,4.2,"Crater, craters",http://planetarynames.wr.usgs.gov/Feature/1964,https://www.wikipedia.org/wiki/Firsov_(crater)
1966,Fischer,,30.48,142.44,7.99,"Crater, craters",http://planetarynames.wr.usgs.gov/Feature/1966,https://www.wikipedia.org/wiki/Fischer_(crater)
1967,Fitzgerald,,104.21,-172.14,26.67,"Crater, craters",http://planetarynames.wr.usgs.gov/Feature/1967,https://www.wikipedia.org/wiki/Fitzgerald_(crater)
1968,Fizeau,,107.08,-134.11,-58.19,"Crater, craters",http://planetarynames.wr.usgs.gov/Feature/1968,https://www.wikipedia.org/wiki/Fizeau_(crater)
1972,Flammarion,,76.18,-3.73,-3.33,"Crater, craters",http://planetarynames.wr.usgs.gov/Feature/1972,https://www.wikipedia.org/wiki/Flammarion_(crater)
1974,Flamsteed,,19.34,-44.34,-4.49,"Crater, craters",http://planetarynames.wr.usgs.gov/Feature/1974,https://www.wikipedia.org/wiki/Flamsteed_(crater)
1979,Fleming,,126.37,109.28,14.91,"Crater, craters",http://planetarynames.wr.usgs.gov/Feature/1979,https://www.wikipedia.org/wiki/Fleming_(crater)
1984,Florensky,,69.03,131.85,25.45,"Crater, craters",http://planetarynames.wr.usgs.gov/Feature/1984,https://www.wikipedia.org/wiki/Florwww.ky_(crater)
14527,Florey,,69.06,-19.75,87.04,"Crater, craters",http://planetarynames.wr.usgs.gov/Feature/14527,https://www.wikipedia.org/wiki/Florey_(crater)
1988,Focas,,22.04,-93.91,-33.7,"Crater, craters",http://planetarynames.wr.usgs.gov/Feature/1988,https://www.wikipedia.org/wiki/Focas_(crater)
1990,Fontana,,31.47,-56.79,-16.04,"Crater, craters",http://planetarynames.wr.usgs.gov/Feature/1990,https://www.wikipedia.org/wiki/Fontana_(crater)
1992,Fontenelle,,37.68,-18.96,63.42,"Crater, craters",http://planetarynames.wr.usgs.gov/Feature/1992,https://www.wikipedia.org/wiki/Fontwww.lle_(crater)
1999,Foster,,37.02,-141.49,23.59,"Crater, craters",http://planetarynames.wr.usgs.gov/Feature/1999,https://www.wikipedia.org/wiki/Foster_(crater)
2001,Foucault,,25.08,-39.86,50.46,"Crater, craters",http://planetarynames.wr.usgs.gov/Feature/2001,https://www.wikipedia.org/wiki/Foucault_(crater)
2003,Fourier,,51.57,-53.1,-30.31,"Crater, craters",http://planetarynames.wr.usgs.gov/Feature/2003,https://www.wikipedia.org/wiki/Fourier_(crater)
2005,Fowler,,139.52,-145.27,42.59,"Crater, craters",http://planetarynames.wr.usgs.gov/Feature/2005,https://www.wikipedia.org/wiki/Fowler_(crater)
2006,Fox,,23.97,98.14,0.47,"Crater, craters",http://planetarynames.wr.usgs.gov/Feature/2006,https://www.wikipedia.org/wiki/Fox_(crater)
2008,Fracastorius,,120.58,33.07,-21.36,"Crater, craters",http://planetarynames.wr.usgs.gov/Feature/2008,https://www.wikipedia.org/wiki/Fracastorius_(crater)
2007,Fra Mauro,,96.76,-16.97,-6.06,"Crater, craters",http://planetarynames.wr.usgs.gov/Feature/2007,https://www.wikipedia.org/wiki/Fra Mauro_(crater)
2012,Franck,,11.91,35.56,22.59,"Crater, craters",http://planetarynames.wr.usgs.gov/Feature/2012,https://www.wikipedia.org/wiki/Franck_(crater)
2014,Franklin,,55.92,47.64,38.73,"Crater, craters",http://planetarynames.wr.usgs.gov/Feature/2014,https://www.wikipedia.org/wiki/Franklin_(crater)
2015,Franz,,25.48,40.24,16.57,"Crater, craters",http://planetarynames.wr.usgs.gov/Feature/2015,https://www.wikipedia.org/wiki/Franz_(crater)
2016,Fraunhofer,,57.75,59.06,-39.52,"Crater, craters",http://planetarynames.wr.usgs.gov/Feature/2016,https://www.wikipedia.org/wiki/Fraunhofer_(crater)
2018,Fredholm,,13.39,46.55,18.37,"Crater, craters",http://planetarynames.wr.usgs.gov/Feature/2018,https://www.wikipedia.org/wiki/Fredholm_(crater)
2022,Freud,,2.85,-52.4,25.79,"Crater, craters",http://planetarynames.wr.usgs.gov/Feature/2022,https://www.wikipedia.org/wiki/Freud_(crater)
2023,Freundlich,,83.16,170.89,25,"Crater, craters",http://planetarynames.wr.usgs.gov/Feature/2023,https://www.wikipedia.org/wiki/Freundlich_(crater)
2027,Fridman (Friedmann),,101.45,-126.88,-12.48,"Crater, craters",http://planetarynames.wr.usgs.gov/Feature/2027,NO
2030,Froelich,,56.73,-111.63,80,"Crater, craters",http://planetarynames.wr.usgs.gov/Feature/2030,https://www.wikipedia.org/wiki/Froelich_(crater)
2031,Frost,,78.3,-118.9,37.41,"Crater, craters",http://planetarynames.wr.usgs.gov/Feature/2031,https://www.wikipedia.org/wiki/Frost_(crater)
2033,Fryxell,,17.62,-101.65,-21.25,"Crater, craters",http://planetarynames.wr.usgs.gov/Feature/2033,https://www.wikipedia.org/wiki/Fryxell_(crater)
2043,Furnerius,,135.03,60.54,-36,"Crater, craters",http://planetarynames.wr.usgs.gov/Feature/2043,https://www.wikipedia.org/wiki/Furnerius_(crater)
2052,Gadomski,,65.66,-147.36,36.21,"Crater, craters",http://planetarynames.wr.usgs.gov/Feature/2052,https://www.wikipedia.org/wiki/Gadomski_(crater)
2054,Gagarin,,261.83,149.35,-19.66,"Crater, craters",http://planetarynames.wr.usgs.gov/Feature/2054,https://www.wikipedia.org/wiki/Gagarin_(crater)
2072,Galen,,9.18,4.96,21.95,"Crater, craters",http://planetarynames.wr.usgs.gov/Feature/2072,https://www.wikipedia.org/wiki/Galwww.(crater)
2074,Galilaei,,15.99,-62.83,10.48,"Crater, craters",http://planetarynames.wr.usgs.gov/Feature/2074,https://www.wikipedia.org/wiki/Galilaei_(crater)
2079,Galle,,20.96,22.33,55.87,"Crater, craters",http://planetarynames.wr.usgs.gov/Feature/2079,https://www.wikipedia.org/wiki/Galle_(crater)
2081,Galois,,231.97,-152.99,-13.94,"Crater, craters",http://planetarynames.wr.usgs.gov/Feature/2081,https://www.wikipedia.org/wiki/Galois_(crater)
2083,Galvani,,76.83,-84.56,49.51,"Crater, craters",http://planetarynames.wr.usgs.gov/Feature/2083,https://www.wikipedia.org/wiki/Galvani_(crater)
2085,Gambart,,24.68,-15.24,0.92,"Crater, craters",http://planetarynames.wr.usgs.gov/Feature/2085,https://www.wikipedia.org/wiki/Gambart_(crater)
2086,Gamow,,113.92,144.65,65.29,"Crater, craters",http://planetarynames.wr.usgs.gov/Feature/2086,https://www.wikipedia.org/wiki/Gamow_(crater)
2100,Ganskiy (Hansky),,42.11,97,-9.64,"Crater, craters",http://planetarynames.wr.usgs.gov/Feature/2100,NO
2101,Ganswindt,,77.52,111.17,-79.42,"Crater, craters",http://planetarynames.wr.usgs.gov/Feature/2101,https://www.wikipedia.org/wiki/Ganswindt_(crater)
2102,Garavito,,81.05,156.78,-47.21,"Crater, craters",http://planetarynames.wr.usgs.gov/Feature/2102,https://www.wikipedia.org/wiki/Garavito_(crater)
2104,Gardner,,17.62,33.81,17.75,"Crater, craters",http://planetarynames.wr.usgs.gov/Feature/2104,https://www.wikipedia.org/wiki/Gardner_(crater)
2302,Gärtner,,101.79,34.76,59.24,"Crater, craters",http://planetarynames.wr.usgs.gov/Feature/2302,https://www.wikipedia.org/wiki/Gärtner_(crater)
2111,Gassendi,,111.39,-39.96,-17.55,"Crater, craters",http://planetarynames.wr.usgs.gov/Feature/2111,https://www.wikipedia.org/wiki/Gasswww.i_(crater)
2112,Gaston,,2.02,-33.96,30.88,"Crater, craters",http://planetarynames.wr.usgs.gov/Feature/2112,https://www.wikipedia.org/wiki/Gaston_(crater)
2116,Gaudibert,,33.14,37.82,-10.93,"Crater, craters",http://planetarynames.wr.usgs.gov/Feature/2116,https://www.wikipedia.org/wiki/Gaudibert_(crater)
2119,Gauricus,,79.64,-12.74,-33.91,"Crater, craters",http://planetarynames.wr.usgs.gov/Feature/2119,https://www.wikipedia.org/wiki/Gauricus_(crater)
2120,Gauss,,170.72,79.08,36.01,"Crater, craters",http://planetarynames.wr.usgs.gov/Feature/2120,https://www.wikipedia.org/wiki/Gauss_(crater)
2122,Gavrilov,,61.62,131.22,17.41,"Crater, craters",http://planetarynames.wr.usgs.gov/Feature/2122,https://www.wikipedia.org/wiki/Gavrilov_(crater)
2124,Gay-Lussac,,25.4,-20.79,13.88,"Crater, craters",http://planetarynames.wr.usgs.gov/Feature/2124,https://www.wikipedia.org/wiki/Gay-Lussac_(crater)
2046,G. Bond,,19.05,36.32,32.39,"Crater, craters",http://planetarynames.wr.usgs.gov/Feature/2046,https://www.wikipedia.org/wiki/G. Bond_(crater)
2128,Geber,,44.68,13.85,-19.46,"Crater, craters",http://planetarynames.wr.usgs.gov/Feature/2128,https://www.wikipedia.org/wiki/Geber_(crater)
2133,Geiger,,36.63,158.41,-14.39,"Crater, craters",http://planetarynames.wr.usgs.gov/Feature/2133,https://www.wikipedia.org/wiki/Geiger_(crater)
2136,Geissler,,17.39,76.51,-2.6,"Crater, craters",http://planetarynames.wr.usgs.gov/Feature/2136,https://www.wikipedia.org/wiki/Geissler_(crater)
2137,Geminus,,81.98,56.66,34.42,"Crater, craters",http://planetarynames.wr.usgs.gov/Feature/2137,https://www.wikipedia.org/wiki/Geminus_(crater)
2138,Gemma Frisius,,88.54,13.37,-34.33,"Crater, craters",http://planetarynames.wr.usgs.gov/Feature/2138,https://www.wikipedia.org/wiki/Gemma Frisius_(crater)
15005,Gena,,0.2,-35.01,38.27,"Crater, craters",http://planetarynames.wr.usgs.gov/Feature/15005,https://www.wikipedia.org/wiki/Gwww._(crater)
2143,Gerard,,98.78,-80.51,44.54,"Crater, craters",http://planetarynames.wr.usgs.gov/Feature/2143,https://www.wikipedia.org/wiki/Gerard_(crater)
2144,Gerasimovich,,90.19,-123.42,-22.95,"Crater, craters",http://planetarynames.wr.usgs.gov/Feature/2144,https://www.wikipedia.org/wiki/Gerasimovich_(crater)
2148,Gernsback,,47.2,99.53,-36.53,"Crater, craters",http://planetarynames.wr.usgs.gov/Feature/2148,https://www.wikipedia.org/wiki/Gernsback_(crater)
2155,Gibbs,,78.76,84.27,-18.37,"Crater, craters",http://planetarynames.wr.usgs.gov/Feature/2155,https://www.wikipedia.org/wiki/Gibbs_(crater)
2159,Gilbert,,100.25,76.16,-3.2,"Crater, craters",http://planetarynames.wr.usgs.gov/Feature/2159,https://www.wikipedia.org/wiki/Gilbert_(crater)
2163,Gill,,63.9,75.95,-63.77,"Crater, craters",http://planetarynames.wr.usgs.gov/Feature/2163,https://www.wikipedia.org/wiki/Gill_(crater)
2170,Ginzel,,53.23,97.4,14.25,"Crater, craters",http://planetarynames.wr.usgs.gov/Feature/2170,https://www.wikipedia.org/wiki/Ginzel_(crater)
2171,Gioja,,42.47,1.76,83.35,"Crater, craters",http://planetarynames.wr.usgs.gov/Feature/2171,https://www.wikipedia.org/wiki/Gioja_(crater)
2172,Giordano Bruno,,22.13,102.89,35.97,"Crater, craters",http://planetarynames.wr.usgs.gov/Feature/2172,https://www.wikipedia.org/wiki/Giordano Bruno_(crater)
2182,Glaisher,,15.92,49.34,13.19,"Crater, craters",http://planetarynames.wr.usgs.gov/Feature/2182,https://www.wikipedia.org/wiki/Glaisher_(crater)
2184,Glauber,,15.24,142.67,11.32,"Crater, craters",http://planetarynames.wr.usgs.gov/Feature/2184,https://www.wikipedia.org/wiki/Glauber_(crater)
2186,Glazenap,,38.96,137.76,-1.85,"Crater, craters",http://planetarynames.wr.usgs.gov/Feature/2186,https://www.wikipedia.org/wiki/Glazwww.p_(crater)
2195,Glushko,,40.1,-77.67,8.11,"Crater, craters",http://planetarynames.wr.usgs.gov/Feature/2195,https://www.wikipedia.org/wiki/Glushko_(crater)
2198,Goclenius,,73.04,45.03,-10.05,"Crater, craters",http://planetarynames.wr.usgs.gov/Feature/2198,https://www.wikipedia.org/wiki/Goclwww.us_(crater)
2199,Goddard,,93.18,89.13,15.15,"Crater, craters",http://planetarynames.wr.usgs.gov/Feature/2199,https://www.wikipedia.org/wiki/Goddard_(crater)
2201,Godin,,34.25,10.16,1.82,"Crater, craters",http://planetarynames.wr.usgs.gov/Feature/2201,https://www.wikipedia.org/wiki/Godin_(crater)
2210,Goldschmidt,,115.26,-3.37,73.04,"Crater, craters",http://planetarynames.wr.usgs.gov/Feature/2210,https://www.wikipedia.org/wiki/Goldschmidt_(crater)
2213,Golgi,,5.58,-59.96,27.78,"Crater, craters",http://planetarynames.wr.usgs.gov/Feature/2213,https://www.wikipedia.org/wiki/Golgi_(crater)
2214,Golitsyn,,35.47,-105.2,-25.2,"Crater, craters",http://planetarynames.wr.usgs.gov/Feature/2214,https://www.wikipedia.org/wiki/Golitsyn_(crater)
2215,Golovin,,37.86,161.24,39.75,"Crater, craters",http://planetarynames.wr.usgs.gov/Feature/2215,https://www.wikipedia.org/wiki/Golovin_(crater)
2221,Goodacre,,44.09,14.08,-32.67,"Crater, craters",http://planetarynames.wr.usgs.gov/Feature/2221,https://www.wikipedia.org/wiki/Goodacre_(crater)
14528,Gore,,9.41,-62.31,86.18,"Crater, craters",http://planetarynames.wr.usgs.gov/Feature/14528,https://www.wikipedia.org/wiki/Gore_(crater)
2227,Gould,,32.99,-17.25,-19.26,"Crater, craters",http://planetarynames.wr.usgs.gov/Feature/2227,https://www.wikipedia.org/wiki/Gould_(crater)
2230,Grace,,1.49,35.89,14.21,"Crater, craters",http://planetarynames.wr.usgs.gov/Feature/2230,https://www.wikipedia.org/wiki/Grace_(crater)
2232,Grachev,,34.98,-108.42,-3.83,"Crater, craters",http://planetarynames.wr.usgs.gov/Feature/2232,https://www.wikipedia.org/wiki/Grachev_(crater)
2233,Graff,,36.16,-88.71,-42.3,"Crater, craters",http://planetarynames.wr.usgs.gov/Feature/2233,https://www.wikipedia.org/wiki/Graff_(crater)
2239,Grave,,36.95,150.23,-17.04,"Crater, craters",http://planetarynames.wr.usgs.gov/Feature/2239,https://www.wikipedia.org/wiki/Grave_(crater)
2241,Greaves,,14.27,52.79,13.18,"Crater, craters",http://planetarynames.wr.usgs.gov/Feature/2241,https://www.wikipedia.org/wiki/Greaves_(crater)
2243,Green,,68.28,133.12,3.69,"Crater, craters",http://planetarynames.wr.usgs.gov/Feature/2243,https://www.wikipedia.org/wiki/Grewww.(crater)
2246,Gregory,,63.9,127.28,1.76,"Crater, craters",http://planetarynames.wr.usgs.gov/Feature/2246,https://www.wikipedia.org/wiki/Gregory_(crater)
2251,Grigg,,36.72,-130.13,12.5,"Crater, craters",http://planetarynames.wr.usgs.gov/Feature/2251,https://www.wikipedia.org/wiki/Grigg_(crater)
14529,Grignard,,12.95,-75.83,84.54,"Crater, craters",http://planetarynames.wr.usgs.gov/Feature/14529,https://www.wikipedia.org/wiki/Grignard_(crater)
2252,Grimaldi,,173.49,-68.36,-5.38,"Crater, craters",http://planetarynames.wr.usgs.gov/Feature/2252,https://www.wikipedia.org/wiki/Grimaldi_(crater)
6836,[Grimm],,0,130.2,-15,"Crater, craters",http://planetarynames.wr.usgs.gov/Feature/6836,NO
2255,Grissom,,59.82,-147.98,-46.92,"Crater, craters",http://planetarynames.wr.usgs.gov/Feature/2255,https://www.wikipedia.org/wiki/Grissom_(crater)
2258,Grotrian,,36.78,128.28,-66.15,"Crater, craters",http://planetarynames.wr.usgs.gov/Feature/2258,https://www.wikipedia.org/wiki/Grotrian_(crater)
2259,Grove,,28.55,32.98,40.3,"Crater, craters",http://planetarynames.wr.usgs.gov/Feature/2259,https://www.wikipedia.org/wiki/Grove_(crater)
2261,Gruemberger,,91.5,-10.3,-67.04,"Crater, craters",http://planetarynames.wr.usgs.gov/Feature/2261,https://www.wikipedia.org/wiki/Gruemberger_(crater)
2262,Gruithuisen,,14.98,-39.78,32.89,"Crater, craters",http://planetarynames.wr.usgs.gov/Feature/2262,https://www.wikipedia.org/wiki/Gruithuiswww.(crater)
2268,Guericke,,60.75,-14.19,-11.57,"Crater, craters",http://planetarynames.wr.usgs.gov/Feature/2268,https://www.wikipedia.org/wiki/Guericke_(crater)
15613,Guest,,19.79,117.39,-19.79,"Crater, craters",http://planetarynames.wr.usgs.gov/Feature/15613,https://www.wikipedia.org/wiki/Guest_(crater)
2272,Guillaume,,56.75,-173.38,45.16,"Crater, craters",http://planetarynames.wr.usgs.gov/Feature/2272,https://www.wikipedia.org/wiki/Guillaume_(crater)
2280,Gullstrand,,45.05,-129.67,44.95,"Crater, craters",http://planetarynames.wr.usgs.gov/Feature/2280,https://www.wikipedia.org/wiki/Gullstrand_(crater)
2282,Gum,,54.55,88.91,-40.34,"Crater, craters",http://planetarynames.wr.usgs.gov/Feature/2282,https://www.wikipedia.org/wiki/Gum_(crater)
2290,Gutenberg,,70.65,41.25,-8.61,"Crater, craters",http://planetarynames.wr.usgs.gov/Feature/2290,https://www.wikipedia.org/wiki/Gutwww.erg_(crater)
2291,Guthnick,,37.03,-94.04,-47.76,"Crater, craters",http://planetarynames.wr.usgs.gov/Feature/2291,https://www.wikipedia.org/wiki/Guthnick_(crater)
2292,Guyot,,98.28,117.12,11.63,"Crater, craters",http://planetarynames.wr.usgs.gov/Feature/2292,https://www.wikipedia.org/wiki/Guyot_(crater)
2300,Gyldén,,48.15,0.23,-5.37,"Crater, craters",http://planetarynames.wr.usgs.gov/Feature/2300,https://www.wikipedia.org/wiki/Gyldén_(crater)
14530,Haber,,56.79,-94.63,83.4,"Crater, craters",http://planetarynames.wr.usgs.gov/Feature/14530,https://www.wikipedia.org/wiki/Haber_(crater)
6837,[Hadley],,5.86,2.8,25.46,"Crater, craters",http://planetarynames.wr.usgs.gov/Feature/6837,NO
2312,Hagecius,,79.55,46.63,-59.92,"Crater, craters",http://planetarynames.wr.usgs.gov/Feature/2312,https://www.wikipedia.org/wiki/Hagecius_(crater)
2313,Hagen,,57.52,135.95,-48.32,"Crater, craters",http://planetarynames.wr.usgs.gov/Feature/2313,https://www.wikipedia.org/wiki/Hagwww.(crater)
2314,Hahn,,87.49,73.55,31.22,"Crater, craters",http://planetarynames.wr.usgs.gov/Feature/2314,https://www.wikipedia.org/wiki/Hahn_(crater)
2315,Haidinger,,21.33,-25.14,-39.18,"Crater, craters",http://planetarynames.wr.usgs.gov/Feature/2315,https://www.wikipedia.org/wiki/Haidinger_(crater)
2317,Hainzel,,70.56,-33.52,-41.23,"Crater, craters",http://planetarynames.wr.usgs.gov/Feature/2317,https://www.wikipedia.org/wiki/Hainzel_(crater)
2319,Haldane,,40.26,84.11,-1.66,"Crater, craters",http://planetarynames.wr.usgs.gov/Feature/2319,https://www.wikipedia.org/wiki/Haldane_(crater)
2321,Hale,,84.42,91.71,-74.13,"Crater, craters",http://planetarynames.wr.usgs.gov/Feature/2321,https://www.wikipedia.org/wiki/Hale_(crater)
2327,Hall,,31.77,36.75,33.81,"Crater, craters",http://planetarynames.wr.usgs.gov/Feature/2327,https://www.wikipedia.org/wiki/Hall_(crater)
2330,Halley,,34.59,5.73,-8.05,"Crater, craters",http://planetarynames.wr.usgs.gov/Feature/2330,https://www.wikipedia.org/wiki/Halley_(crater)
2339,Hamilton,,57.45,84.41,-42.77,"Crater, craters",http://planetarynames.wr.usgs.gov/Feature/2339,https://www.wikipedia.org/wiki/Hamilton_(crater)
2351,Hanno,,59.54,71.38,-56.46,"Crater, craters",http://planetarynames.wr.usgs.gov/Feature/2351,https://www.wikipedia.org/wiki/Hanno_(crater)
2353,Hansen,,41.18,72.54,14.04,"Crater, craters",http://planetarynames.wr.usgs.gov/Feature/2353,https://www.wikipedia.org/wiki/Hanswww.(crater)
2354,Hansteen,,44.99,-52.06,-11.53,"Crater, craters",http://planetarynames.wr.usgs.gov/Feature/2354,https://www.wikipedia.org/wiki/Hanstewww.(crater)
2361,Harden,,14.98,143.55,5.46,"Crater, craters",http://planetarynames.wr.usgs.gov/Feature/2361,https://www.wikipedia.org/wiki/Hardwww.(crater)
2362,Harding,,22.57,-71.66,43.54,"Crater, craters",http://planetarynames.wr.usgs.gov/Feature/2362,https://www.wikipedia.org/wiki/Harding_(crater)
2363,Haret,,29.77,-176.19,-58.77,"Crater, craters",http://planetarynames.wr.usgs.gov/Feature/2363,https://www.wikipedia.org/wiki/Haret_(crater)
2364,Hargreaves,,18,64.09,-2.18,"Crater, craters",http://planetarynames.wr.usgs.gov/Feature/2364,https://www.wikipedia.org/wiki/Hargreaves_(crater)
2365,Harkhebi,,337.14,98.74,40.87,"Crater, craters",http://planetarynames.wr.usgs.gov/Feature/2365,https://www.wikipedia.org/wiki/Harkhebi_(crater)
2366,Harlan,,63.45,79.65,-38.31,"Crater, craters",http://planetarynames.wr.usgs.gov/Feature/2366,https://www.wikipedia.org/wiki/Harlan_(crater)
2370,Harold,,1.43,-6.07,-10.88,"Crater, craters",http://planetarynames.wr.usgs.gov/Feature/2370,https://www.wikipedia.org/wiki/Harold_(crater)
2372,Harpalus,,39.77,-43.49,52.73,"Crater, craters",http://planetarynames.wr.usgs.gov/Feature/2372,https://www.wikipedia.org/wiki/Harpalus_(crater)
2374,Harriot,,52.77,114.4,33.2,"Crater, craters",http://planetarynames.wr.usgs.gov/Feature/2374,https://www.wikipedia.org/wiki/Harriot_(crater)
2375,Hartmann,,63.29,135.45,2.71,"Crater, craters",http://planetarynames.wr.usgs.gov/Feature/2375,https://www.wikipedia.org/wiki/Hartmann_(crater)
2376,Hartwig,,78.46,-80.47,-6.14,"Crater, craters",http://planetarynames.wr.usgs.gov/Feature/2376,https://www.wikipedia.org/wiki/Hartwig_(crater)
2379,Harvey,,59.98,-146.51,19.35,"Crater, craters",http://planetarynames.wr.usgs.gov/Feature/2379,https://www.wikipedia.org/wiki/Harvey_(crater)
2380,Hase,,82.08,62.68,-29.37,"Crater, craters",http://planetarynames.wr.usgs.gov/Feature/2380,https://www.wikipedia.org/wiki/Hase_(crater)
14532,Haskin,,66.57,133.16,81.51,"Crater, craters",http://planetarynames.wr.usgs.gov/Feature/14532,https://www.wikipedia.org/wiki/Haskin_(crater)
2381,Hatanaka,,30.15,-121.92,29.33,"Crater, craters",http://planetarynames.wr.usgs.gov/Feature/2381,https://www.wikipedia.org/wiki/Hatanaka_(crater)
2388,Hausen,,163.24,-88.49,-65.11,"Crater, craters",http://planetarynames.wr.usgs.gov/Feature/2388,https://www.wikipedia.org/wiki/Hauswww.(crater)
15723,Hawke,,13.2,128.65,-66.61,"Crater, craters",http://planetarynames.wr.usgs.gov/Feature/15723,https://www.wikipedia.org/wiki/Hawke_(crater)
14502,Haworth,,51.42,-5.17,-87.45,"Crater, craters",http://planetarynames.wr.usgs.gov/Feature/14502,https://www.wikipedia.org/wiki/Haworth_(crater)
2393,Hayford,,28.15,-176.45,12.68,"Crater, craters",http://planetarynames.wr.usgs.gov/Feature/2393,https://www.wikipedia.org/wiki/Hayford_(crater)
2394,Hayn,,86.21,83.87,64.56,"Crater, craters",http://planetarynames.wr.usgs.gov/Feature/2394,https://www.wikipedia.org/wiki/Hayn_(crater)
2397,Healy,,37.98,-111,32.5,"Crater, craters",http://planetarynames.wr.usgs.gov/Feature/2397,https://www.wikipedia.org/wiki/Healy_(crater)
2400,Heaviside,,164.46,166.77,-10.44,"Crater, craters",http://planetarynames.wr.usgs.gov/Feature/2400,https://www.wikipedia.org/wiki/Heaviside_(crater)
2405,Hecataeus,,133.67,79.68,-22.06,"Crater, craters",http://planetarynames.wr.usgs.gov/Feature/2405,https://www.wikipedia.org/wiki/Hecataeus_(crater)
2620,Hédervári,,74.14,85.6,-81.77,"Crater, craters",http://planetarynames.wr.usgs.gov/Feature/2620,https://www.wikipedia.org/wiki/Hédervári_(crater)
2409,Hedin,,157.38,-76.57,2.87,"Crater, craters",http://planetarynames.wr.usgs.gov/Feature/2409,https://www.wikipedia.org/wiki/Hedin_(crater)
15783,Hegu,,2.2,177.57,-46.3,"Crater, craters",http://planetarynames.wr.usgs.gov/Feature/15783,NO
6839,[Heine],,0,132,-14.4,"Crater, craters",http://planetarynames.wr.usgs.gov/Feature/6839,NO
2416,Heinrich,,6.86,-15.37,24.84,"Crater, craters",http://planetarynames.wr.usgs.gov/Feature/2416,https://www.wikipedia.org/wiki/Heinrich_(crater)
2417,Heinsius,,64.87,-17.82,-39.48,"Crater, craters",http://planetarynames.wr.usgs.gov/Feature/2417,https://www.wikipedia.org/wiki/Heinsius_(crater)
2418,Heis,,13.69,-31.98,32.47,"Crater, craters",http://planetarynames.wr.usgs.gov/Feature/2418,https://www.wikipedia.org/wiki/Heis_(crater)
2421,Helberg,,61.93,-102.46,22.63,"Crater, craters",http://planetarynames.wr.usgs.gov/Feature/2421,https://www.wikipedia.org/wiki/Helberg_(crater)
2424,Helicon,,23.74,-23.11,40.43,"Crater, craters",http://planetarynames.wr.usgs.gov/Feature/2424,https://www.wikipedia.org/wiki/Helicon_(crater)
2428,Hell,,33.31,-7.8,-32.41,"Crater, craters",http://planetarynames.wr.usgs.gov/Feature/2428,https://www.wikipedia.org/wiki/Hell_(crater)
2437,Helmert,,26.72,87.67,-7.56,"Crater, craters",http://planetarynames.wr.usgs.gov/Feature/2437,https://www.wikipedia.org/wiki/Helmert_(crater)
2438,Helmholtz,,110.16,65.34,-68.64,"Crater, craters",http://planetarynames.wr.usgs.gov/Feature/2438,https://www.wikipedia.org/wiki/Helmholtz_(crater)
2445,Henderson,,43.49,152,4.76,"Crater, craters",http://planetarynames.wr.usgs.gov/Feature/2445,https://www.wikipedia.org/wiki/Hwww.erson_(crater)
2446,Hendrix,,16.63,-159.97,-46.86,"Crater, craters",http://planetarynames.wr.usgs.gov/Feature/2446,https://www.wikipedia.org/wiki/Hwww.rix_(crater)
2451,Henry,,39.06,-57.01,-23.97,"Crater, craters",http://planetarynames.wr.usgs.gov/Feature/2451,https://www.wikipedia.org/wiki/Hwww.y_(crater)
2453,Henry Frères,,41.73,-59.02,-23.52,"Crater, craters",http://planetarynames.wr.usgs.gov/Feature/2453,https://www.wikipedia.org/wiki/Hwww.y Frères_(crater)
2455,Henyey,,68.74,-152.33,12.7,"Crater, craters",http://planetarynames.wr.usgs.gov/Feature/2455,https://www.wikipedia.org/wiki/Hwww.ey_(crater)
2465,Heraclitus,,85.74,6.42,-49.31,"Crater, craters",http://planetarynames.wr.usgs.gov/Feature/2465,https://www.wikipedia.org/wiki/Heraclitus_(crater)
2467,Hercules,,68.32,39.21,46.82,"Crater, craters",http://planetarynames.wr.usgs.gov/Feature/2467,https://www.wikipedia.org/wiki/Hercules_(crater)
2468,Herigonius,,14.86,-33.97,-13.36,"Crater, craters",http://planetarynames.wr.usgs.gov/Feature/2468,https://www.wikipedia.org/wiki/Herigonius_(crater)
2469,Hermann,,15.92,-57.47,-0.87,"Crater, craters",http://planetarynames.wr.usgs.gov/Feature/2469,https://www.wikipedia.org/wiki/Hermann_(crater)
2471,Hermite,,108.64,-93.32,86.17,"Crater, craters",http://planetarynames.wr.usgs.gov/Feature/2471,https://www.wikipedia.org/wiki/Hermite_(crater)
2475,Herodotus,,35.87,-49.84,23.25,"Crater, craters",http://planetarynames.wr.usgs.gov/Feature/2475,https://www.wikipedia.org/wiki/Herodotus_(crater)
2476,Heron (Hero),,28.1,119.88,0.65,"Crater, craters",http://planetarynames.wr.usgs.gov/Feature/2476,NO
2477,Herschel,,39.09,-2.09,-5.69,"Crater, craters",http://planetarynames.wr.usgs.gov/Feature/2477,https://www.wikipedia.org/wiki/Herschel_(crater)
2481,Hertz,,82.94,104.56,13.32,"Crater, craters",http://planetarynames.wr.usgs.gov/Feature/2481,https://www.wikipedia.org/wiki/Hertz_(crater)
2482,Hertzsprung,,536.37,-128.66,1.37,"Crater, craters",http://planetarynames.wr.usgs.gov/Feature/2482,https://www.wikipedia.org/wiki/Hertzsprung_(crater)
2485,Hesiodus,,43.24,-16.42,-29.42,"Crater, craters",http://planetarynames.wr.usgs.gov/Feature/2485,https://www.wikipedia.org/wiki/Hesiodus_(crater)
2490,Hess,,90.44,174.19,-54.47,"Crater, craters",http://planetarynames.wr.usgs.gov/Feature/2490,https://www.wikipedia.org/wiki/Hess_(crater)
2493,Hevelius,,113.87,-67.46,2.2,"Crater, craters",http://planetarynames.wr.usgs.gov/Feature/2493,https://www.wikipedia.org/wiki/Hevelius_(crater)
14531,Hevesy,,49.99,149.15,83.09,"Crater, craters",http://planetarynames.wr.usgs.gov/Feature/14531,https://www.wikipedia.org/wiki/Hevesy_(crater)
2494,Heymans,,46.45,-144.94,74.76,"Crater, craters",http://planetarynames.wr.usgs.gov/Feature/2494,https://www.wikipedia.org/wiki/Heymans_(crater)
2495,Heyrovsky,,16.66,-95.42,-39.55,"Crater, craters",http://planetarynames.wr.usgs.gov/Feature/2495,https://www.wikipedia.org/wiki/Heyrovsky_(crater)
